{
"type": "FeatureCollection",
"crs": { "type": "name", "properties": { "name": "urn:ogc:def:crs:OGC:1.3:CRS84" } },
"features": [
{ "type": "Feature", "properties": { "stop_id": 7420, "stop_name": "SW 35th & Indian Hills Apts", "jurisdic": "Portland", "zipcode": "97219", "type": "BUS", "direction": "N", "position": "AT", "ons": "6", "offs": "1", "total": "7", "monthly_lifts": 0 }, "geometry": { "type": "Point", "coordinates": [ -122.711568586120364, 45.455159579306375 ] } },
{ "type": "Feature", "properties": { "stop_id": 5723, "stop_name": "SW Taylors Ferry & 28th", "jurisdic": "Portland", "zipcode": "97219", "type": "BUS", "direction": "E", "position": "OP", "ons": "0", "offs": "0", "total": "0", "monthly_lifts": 0 }, "geometry": { "type": "Point", "coordinates": [ -122.705769954171359, 45.457892029069107 ] } },
{ "type": "Feature", "properties": { "stop_id": 5721, "stop_name": "SW Taylors Ferry & 26th", "jurisdic": "Portland", "zipcode": "97219", "type": "BUS", "direction": "E", "position": "FS", "ons": "3", "offs": "1", "total": "4", "monthly_lifts": 0 }, "geometry": { "type": "Point", "coordinates": [ -122.703371874513408, 45.458051541777976 ] } },
{ "type": "Feature", "properties": { "stop_id": 5714, "stop_name": "SW Taylors Ferry & 17th", "jurisdic": "Portland", "zipcode": "97219", "type": "BUS", "direction": "E", "position": "OP", "ons": "1", "offs": "0", "total": "1", "monthly_lifts": 0 }, "geometry": { "type": "Point", "coordinates": [ -122.695336895158647, 45.458600547783639 ] } },
{ "type": "Feature", "properties": { "stop_id": 5699, "stop_name": "SW Taylors Ferry & Dolph", "jurisdic": "Portland", "zipcode": "97219", "type": "BUS", "direction": "N", "position": "OP", "ons": "4", "offs": "0", "total": "4", "monthly_lifts": 0 }, "geometry": { "type": "Point", "coordinates": [ -122.69091707867014, 45.462061950808611 ] } },
{ "type": "Feature", "properties": { "stop_id": 5710, "stop_name": "SW Taylors Ferry & 11th", "jurisdic": "Portland", "zipcode": "97219", "type": "BUS", "direction": "E", "position": "NS", "ons": "1", "offs": "1", "total": "2", "monthly_lifts": 0 }, "geometry": { "type": "Point", "coordinates": [ -122.690071733400899, 45.462770180775721 ] } },
{ "type": "Feature", "properties": { "stop_id": 5706, "stop_name": "SW Taylors Ferry & Terwilliger", "jurisdic": "Portland", "zipcode": "97219", "type": "BUS", "direction": "E", "position": "NS", "ons": "13", "offs": "12", "total": "25", "monthly_lifts": 0 }, "geometry": { "type": "Point", "coordinates": [ -122.685157004742976, 45.462968913481717 ] } },
{ "type": "Feature", "properties": { "stop_id": 4102, "stop_name": "SW Nebraska & Corbett", "jurisdic": "Portland", "zipcode": "97239", "type": "BUS", "direction": "W", "position": "NS", "ons": "2", "offs": "0", "total": "2", "monthly_lifts": 0 }, "geometry": { "type": "Point", "coordinates": [ -122.67677018258135, 45.47734031734003 ] } },
{ "type": "Feature", "properties": { "stop_id": 1149, "stop_name": "SW Corbett & Pendleton", "jurisdic": "Portland", "zipcode": "97239", "type": "BUS", "direction": "N", "position": "NS", "ons": "3", "offs": "0", "total": "3", "monthly_lifts": 0 }, "geometry": { "type": "Point", "coordinates": [ -122.676776039371916, 45.481090122624202 ] } },
{ "type": "Feature", "properties": { "stop_id": 1135, "stop_name": "SW Corbett & Flower", "jurisdic": "Portland", "zipcode": "97239", "type": "BUS", "direction": "N", "position": "NS", "ons": "1", "offs": "0", "total": "1", "monthly_lifts": 0 }, "geometry": { "type": "Point", "coordinates": [ -122.67675433767289, 45.482415196586565 ] } },
{ "type": "Feature", "properties": { "stop_id": 1129, "stop_name": "SW Corbett & Boundary St", "jurisdic": "Portland", "zipcode": "97239", "type": "BUS", "direction": "N", "position": "NS", "ons": "5", "offs": "4", "total": "9", "monthly_lifts": 0 }, "geometry": { "type": "Point", "coordinates": [ -122.676703702516662, 45.484872105005913 ] } },
{ "type": "Feature", "properties": { "stop_id": 1146, "stop_name": "SW Corbett & Mitchell", "jurisdic": "Portland", "zipcode": "97239", "type": "BUS", "direction": "N", "position": "FS", "ons": "3", "offs": "1", "total": "4", "monthly_lifts": 0 }, "geometry": { "type": "Point", "coordinates": [ -122.676682829188763, 45.486016280503293 ] } },
{ "type": "Feature", "properties": { "stop_id": 1141, "stop_name": "SW Corbett & Hamilton", "jurisdic": "Portland", "zipcode": "97239", "type": "BUS", "direction": "N", "position": "NS", "ons": "0", "offs": "4", "total": "4", "monthly_lifts": 0 }, "geometry": { "type": "Point", "coordinates": [ -122.676151187263045, 45.490763366642319 ] } },
{ "type": "Feature", "properties": { "stop_id": 3039, "stop_name": "SW Jefferson & Broadway", "jurisdic": "Portland", "zipcode": "97204", "type": "BUS", "direction": "W", "position": "NS", "ons": "56", "offs": "168", "total": "224", "monthly_lifts": 13 }, "geometry": { "type": "Point", "coordinates": [ -122.681592512030207, 45.515365868428027 ] } },
{ "type": "Feature", "properties": { "stop_id": 3051, "stop_name": "SW Jefferson & 13th", "jurisdic": "Portland", "zipcode": "97201", "type": "BUS", "direction": "W", "position": "NS", "ons": "34", "offs": "81", "total": "115", "monthly_lifts": 37 }, "geometry": { "type": "Point", "coordinates": [ -122.687153570560071, 45.516852389974389 ] } },
{ "type": "Feature", "properties": { "stop_id": 614, "stop_name": "SW Broadway & Lincoln", "jurisdic": "Portland", "zipcode": "97201", "type": "BUS", "direction": "S", "position": "NS", "ons": "1", "offs": "1", "total": "2", "monthly_lifts": 0 }, "geometry": { "type": "Point", "coordinates": [ -122.685535429360257, 45.508241329424571 ] } },
{ "type": "Feature", "properties": { "stop_id": 5804, "stop_name": "SW Terwilliger & Sam Jackson", "jurisdic": "Portland", "zipcode": "97201", "type": "BUS", "direction": "S", "position": "FS", "ons": "17", "offs": "7", "total": "24", "monthly_lifts": 5 }, "geometry": { "type": "Point", "coordinates": [ -122.687516089783955, 45.502538361806891 ] } },
{ "type": "Feature", "properties": { "stop_id": 2300, "stop_name": "SW Hall & 13th", "jurisdic": "Beaverton", "zipcode": "97005", "type": "BUS", "direction": "N", "position": "OP", "ons": "16", "offs": "5", "total": "21", "monthly_lifts": 2 }, "geometry": { "type": "Point", "coordinates": [ -122.805526343729838, 45.477621805732177 ] } },
{ "type": "Feature", "properties": { "stop_id": 2271, "stop_name": "SW Hall & Broadway", "jurisdic": "Beaverton", "zipcode": "97005", "type": "BUS", "direction": "N", "position": "FS", "ons": "3", "offs": "84", "total": "87", "monthly_lifts": 13 }, "geometry": { "type": "Point", "coordinates": [ -122.803879415743751, 45.48784009023862 ] } },
{ "type": "Feature", "properties": { "stop_id": 9981, "stop_name": "Beaverton Transit Center", "jurisdic": "Beaverton", "zipcode": "97005", "type": "BUS", "direction": "S", "position": "AT", "ons": "552", "offs": "22", "total": "574", "monthly_lifts": 101 }, "geometry": { "type": "Point", "coordinates": [ -122.801741391128218, 45.490929815895399 ] } },
{ "type": "Feature", "properties": { "stop_id": 2615, "stop_name": "SE Hawthorne & 30th", "jurisdic": "Portland", "zipcode": "97214", "type": "BUS", "direction": "E", "position": "NS", "ons": "24", "offs": "63", "total": "87", "monthly_lifts": 9 }, "geometry": { "type": "Point", "coordinates": [ -122.634913952912314, 45.512005579441052 ] } },
{ "type": "Feature", "properties": { "stop_id": 2620, "stop_name": "SE Hawthorne & 34th", "jurisdic": "Portland", "zipcode": "97214", "type": "BUS", "direction": "E", "position": "FS", "ons": "32", "offs": "69", "total": "101", "monthly_lifts": 11 }, "geometry": { "type": "Point", "coordinates": [ -122.629337879419509, 45.51199869941648 ] } },
{ "type": "Feature", "properties": { "stop_id": 2623, "stop_name": "SE Hawthorne & 37th", "jurisdic": "Portland", "zipcode": "97214", "type": "BUS", "direction": "E", "position": "FS", "ons": "45", "offs": "132", "total": "177", "monthly_lifts": 31 }, "geometry": { "type": "Point", "coordinates": [ -122.625462665096123, 45.511986779624131 ] } },
{ "type": "Feature", "properties": { "stop_id": 2628, "stop_name": "SE Hawthorne & 41st", "jurisdic": "Portland", "zipcode": "97214", "type": "BUS", "direction": "E", "position": "NS", "ons": "52", "offs": "76", "total": "128", "monthly_lifts": 12 }, "geometry": { "type": "Point", "coordinates": [ -122.620348525627094, 45.511975645205396 ] } },
{ "type": "Feature", "properties": { "stop_id": 7651, "stop_name": "SE 50th & Clay", "jurisdic": "Portland", "zipcode": "97215", "type": "BUS", "direction": "S", "position": "NS", "ons": "20", "offs": "42", "total": "62", "monthly_lifts": 12 }, "geometry": { "type": "Point", "coordinates": [ -122.611615248389953, 45.511383808292962 ] } },
{ "type": "Feature", "properties": { "stop_id": 7660, "stop_name": "SE 50th & Lincoln", "jurisdic": "Portland", "zipcode": "97215", "type": "BUS", "direction": "S", "position": "NS", "ons": "7", "offs": "30", "total": "37", "monthly_lifts": 3 }, "geometry": { "type": "Point", "coordinates": [ -122.611380077401748, 45.50811050718675 ] } },
{ "type": "Feature", "properties": { "stop_id": 1794, "stop_name": "SE Foster & 52nd", "jurisdic": "Portland", "zipcode": "97206", "type": "BUS", "direction": "E", "position": "FS", "ons": "57", "offs": "62", "total": "119", "monthly_lifts": 25 }, "geometry": { "type": "Point", "coordinates": [ -122.608652766401164, 45.495391938415139 ] } },
{ "type": "Feature", "properties": { "stop_id": 1804, "stop_name": "SE Foster & 67th", "jurisdic": "Portland", "zipcode": "97206", "type": "BUS", "direction": "E", "position": "FS", "ons": "18", "offs": "48", "total": "66", "monthly_lifts": 17 }, "geometry": { "type": "Point", "coordinates": [ -122.59383711330274, 45.48833934075116 ] } },
{ "type": "Feature", "properties": { "stop_id": 1810, "stop_name": "SE Foster & 72nd", "jurisdic": "Portland", "zipcode": "97206", "type": "BUS", "direction": "E", "position": "FS", "ons": "22", "offs": "88", "total": "110", "monthly_lifts": 30 }, "geometry": { "type": "Point", "coordinates": [ -122.588742941481286, 45.486253515814447 ] } },
{ "type": "Feature", "properties": { "stop_id": 1814, "stop_name": "SE Foster & 77th", "jurisdic": "Portland", "zipcode": "97206", "type": "BUS", "direction": "E", "position": "FS", "ons": "8", "offs": "46", "total": "54", "monthly_lifts": 12 }, "geometry": { "type": "Point", "coordinates": [ -122.583758137062759, 45.484568284184718 ] } },
{ "type": "Feature", "properties": { "stop_id": 1816, "stop_name": "SE Foster & 79th", "jurisdic": "Portland", "zipcode": "97206", "type": "BUS", "direction": "E", "position": "FS", "ons": "4", "offs": "55", "total": "59", "monthly_lifts": 28 }, "geometry": { "type": "Point", "coordinates": [ -122.582048026840098, 45.483921397639463 ] } },
{ "type": "Feature", "properties": { "stop_id": 1821, "stop_name": "SE Foster & 85th", "jurisdic": "Portland", "zipcode": "97266", "type": "BUS", "direction": "E", "position": "NS", "ons": "4", "offs": "34", "total": "38", "monthly_lifts": 6 }, "geometry": { "type": "Point", "coordinates": [ -122.576020589786864, 45.481828050896027 ] } },
{ "type": "Feature", "properties": { "stop_id": 6427, "stop_name": "SE Woodstock & 92nd", "jurisdic": "Portland", "zipcode": "97266", "type": "BUS", "direction": "E", "position": "NS", "ons": "36", "offs": "91", "total": "127", "monthly_lifts": 32 }, "geometry": { "type": "Point", "coordinates": [ -122.568789631472015, 45.479066485406904 ] } },
{ "type": "Feature", "properties": { "stop_id": 8134, "stop_name": "SE 97th & Foster", "jurisdic": "Portland", "zipcode": "97266", "type": "BUS", "direction": "N", "position": "NS", "ons": "9", "offs": "79", "total": "88", "monthly_lifts": 18 }, "geometry": { "type": "Point", "coordinates": [ -122.563366248362172, 45.478196421877641 ] } },
{ "type": "Feature", "properties": { "stop_id": 1831, "stop_name": "SE Foster & 94th (I-205 Overpass)", "jurisdic": "Portland", "zipcode": "97266", "type": "BUS", "direction": "W", "position": "NS", "ons": "162", "offs": "352", "total": "514", "monthly_lifts": 119 }, "geometry": { "type": "Point", "coordinates": [ -122.566246311782749, 45.479259380523118 ] } },
{ "type": "Feature", "properties": { "stop_id": 1826, "stop_name": "SE Foster & 88th", "jurisdic": "Portland", "zipcode": "97266", "type": "BUS", "direction": "W", "position": "FS", "ons": "55", "offs": "4", "total": "59", "monthly_lifts": 21 }, "geometry": { "type": "Point", "coordinates": [ -122.572303297942838, 45.481024777987699 ] } },
{ "type": "Feature", "properties": { "stop_id": 1818, "stop_name": "SE Foster & 82nd", "jurisdic": "Portland", "zipcode": "97206", "type": "BUS", "direction": "W", "position": "FS", "ons": "308", "offs": "136", "total": "444", "monthly_lifts": 96 }, "geometry": { "type": "Point", "coordinates": [ -122.579640818831137, 45.483181509317589 ] } },
{ "type": "Feature", "properties": { "stop_id": 1815, "stop_name": "SE Foster & 78th", "jurisdic": "Portland", "zipcode": "97206", "type": "BUS", "direction": "W", "position": "NS", "ons": "62", "offs": "10", "total": "72", "monthly_lifts": 15 }, "geometry": { "type": "Point", "coordinates": [ -122.583361503210327, 45.484596452150036 ] } },
{ "type": "Feature", "properties": { "stop_id": 1807, "stop_name": "SE Foster & 69th", "jurisdic": "Portland", "zipcode": "97206", "type": "BUS", "direction": "W", "position": "FS", "ons": "21", "offs": "12", "total": "33", "monthly_lifts": 6 }, "geometry": { "type": "Point", "coordinates": [ -122.592976455554705, 45.48817871442477 ] } },
{ "type": "Feature", "properties": { "stop_id": 1805, "stop_name": "SE Foster & 67th", "jurisdic": "Portland", "zipcode": "97206", "type": "BUS", "direction": "W", "position": "NS", "ons": "44", "offs": "12", "total": "56", "monthly_lifts": 13 }, "geometry": { "type": "Point", "coordinates": [ -122.594177103126412, 45.488675130063548 ] } },
{ "type": "Feature", "properties": { "stop_id": 1778, "stop_name": "SE Foster & Holgate", "jurisdic": "Portland", "zipcode": "97206", "type": "BUS", "direction": "W", "position": "NS", "ons": "82", "offs": "31", "total": "113", "monthly_lifts": 63 }, "geometry": { "type": "Point", "coordinates": [ -122.597881715362703, 45.49022355405021 ] } },
{ "type": "Feature", "properties": { "stop_id": 1799, "stop_name": "SE Foster & 58th", "jurisdic": "Portland", "zipcode": "97206", "type": "BUS", "direction": "W", "position": "NS", "ons": "39", "offs": "7", "total": "46", "monthly_lifts": 8 }, "geometry": { "type": "Point", "coordinates": [ -122.603125642645935, 45.492947203207372 ] } },
{ "type": "Feature", "properties": { "stop_id": 7665, "stop_name": "SE 50th & Tibbetts", "jurisdic": "Portland", "zipcode": "97206", "type": "BUS", "direction": "N", "position": "NS", "ons": "16", "offs": "7", "total": "23", "monthly_lifts": 4 }, "geometry": { "type": "Point", "coordinates": [ -122.611253365548322, 45.500196902748385 ] } },
{ "type": "Feature", "properties": { "stop_id": 7654, "stop_name": "SE 50th & Division", "jurisdic": "Portland", "zipcode": "97206", "type": "BUS", "direction": "N", "position": "NS", "ons": "100", "offs": "46", "total": "146", "monthly_lifts": 39 }, "geometry": { "type": "Point", "coordinates": [ -122.610898232208044, 45.505126920684255 ] } },
{ "type": "Feature", "properties": { "stop_id": 2629, "stop_name": "SE Hawthorne & 41st", "jurisdic": "Portland", "zipcode": "97214", "type": "BUS", "direction": "W", "position": "NS", "ons": "58", "offs": "39", "total": "97", "monthly_lifts": 15 }, "geometry": { "type": "Point", "coordinates": [ -122.619841106517526, 45.512115217112886 ] } },
{ "type": "Feature", "properties": { "stop_id": 2609, "stop_name": "SE Hawthorne & 22nd", "jurisdic": "Portland", "zipcode": "97214", "type": "BUS", "direction": "W", "position": "NS", "ons": "78", "offs": "43", "total": "121", "monthly_lifts": 10 }, "geometry": { "type": "Point", "coordinates": [ -122.643398412058318, 45.512155284358748 ] } },
{ "type": "Feature", "properties": { "stop_id": 2606, "stop_name": "SE Hawthorne & 19th", "jurisdic": "Portland", "zipcode": "97214", "type": "BUS", "direction": "W", "position": "FS", "ons": "65", "offs": "25", "total": "90", "monthly_lifts": 13 }, "geometry": { "type": "Point", "coordinates": [ -122.647073987221276, 45.512271797549737 ] } },
{ "type": "Feature", "properties": { "stop_id": 2602, "stop_name": "SE Hawthorne & 14th", "jurisdic": "Portland", "zipcode": "97214", "type": "BUS", "direction": "W", "position": "FS", "ons": "41", "offs": "40", "total": "81", "monthly_lifts": 8 }, "geometry": { "type": "Point", "coordinates": [ -122.651911950661187, 45.512272077188662 ] } },
{ "type": "Feature", "properties": { "stop_id": 3641, "stop_name": "SE Madison & 7th", "jurisdic": "Portland", "zipcode": "97214", "type": "BUS", "direction": "W", "position": "NS", "ons": "22", "offs": "56", "total": "78", "monthly_lifts": 10 }, "geometry": { "type": "Point", "coordinates": [ -122.658466077763492, 45.513012893717871 ] } },
{ "type": "Feature", "properties": { "stop_id": 3633, "stop_name": "SE Madison & Grand", "jurisdic": "Portland", "zipcode": "97214", "type": "BUS", "direction": "W", "position": "NS", "ons": "224", "offs": "403", "total": "627", "monthly_lifts": 92 }, "geometry": { "type": "Point", "coordinates": [ -122.66059991773713, 45.513008505863773 ] } },
{ "type": "Feature", "properties": { "stop_id": 955, "stop_name": "SW Capitol & Sunset", "jurisdic": "Portland", "zipcode": "97239", "type": "BUS", "direction": "W", "position": "NS", "ons": "368", "offs": "358", "total": "726", "monthly_lifts": 35 }, "geometry": { "type": "Point", "coordinates": [ -122.693219302072507, 45.478896111218766 ] } },
{ "type": "Feature", "properties": { "stop_id": 363, "stop_name": "SW Beaverton-Hillsdale & 18th Dr", "jurisdic": "Portland", "zipcode": "97239", "type": "BUS", "direction": "W", "position": "NS", "ons": "60", "offs": "62", "total": "122", "monthly_lifts": 13 }, "geometry": { "type": "Point", "coordinates": [ -122.697421087798844, 45.478208148705598 ] } },
{ "type": "Feature", "properties": { "stop_id": 365, "stop_name": "SW Beaverton-Hillsdale & 25th", "jurisdic": "Portland", "zipcode": "97239", "type": "BUS", "direction": "W", "position": "NS", "ons": "9", "offs": "29", "total": "38", "monthly_lifts": 0 }, "geometry": { "type": "Point", "coordinates": [ -122.702265541294025, 45.480087670818882 ] } },
{ "type": "Feature", "properties": { "stop_id": 370, "stop_name": "SW Beaverton-Hillsdale & 35th", "jurisdic": "Portland", "zipcode": "97239", "type": "BUS", "direction": "W", "position": "OP", "ons": "11", "offs": "23", "total": "34", "monthly_lifts": 6 }, "geometry": { "type": "Point", "coordinates": [ -122.712657149404109, 45.482896665052323 ] } },
{ "type": "Feature", "properties": { "stop_id": 372, "stop_name": "SW Beaverton-Hillsdale & 39th Dr", "jurisdic": "Portland", "zipcode": "97221", "type": "BUS", "direction": "W", "position": "NS", "ons": "3", "offs": "44", "total": "47", "monthly_lifts": 0 }, "geometry": { "type": "Point", "coordinates": [ -122.716451177062098, 45.484584374304255 ] } },
{ "type": "Feature", "properties": { "stop_id": 374, "stop_name": "SW Beaverton-Hillsdale & 42nd", "jurisdic": "Portland", "zipcode": "97221", "type": "BUS", "direction": "W", "position": "NS", "ons": "11", "offs": "51", "total": "62", "monthly_lifts": 2 }, "geometry": { "type": "Point", "coordinates": [ -122.720100192723976, 45.485596196166675 ] } },
{ "type": "Feature", "properties": { "stop_id": 378, "stop_name": "SW Beaverton-Hillsdale & 50th", "jurisdic": "Portland", "zipcode": "97221", "type": "BUS", "direction": "W", "position": "OP", "ons": "3", "offs": "13", "total": "16", "monthly_lifts": 0 }, "geometry": { "type": "Point", "coordinates": [ -122.728428264694372, 45.487106795300754 ] } },
{ "type": "Feature", "properties": { "stop_id": 384, "stop_name": "SW Beaverton-Hillsdale & 65th", "jurisdic": "Washington Co.", "zipcode": "97225", "type": "BUS", "direction": "W", "position": "OP", "ons": "21", "offs": "42", "total": "63", "monthly_lifts": 5 }, "geometry": { "type": "Point", "coordinates": [ -122.743950431011768, 45.48721714284256 ] } },
{ "type": "Feature", "properties": { "stop_id": 5152, "stop_name": "4900 Block SW Scholls Ferry", "jurisdic": "Washington Co.", "zipcode": "97225", "type": "BUS", "direction": "W", "position": "AT", "ons": "3", "offs": "22", "total": "25", "monthly_lifts": 3 }, "geometry": { "type": "Point", "coordinates": [ -122.752767865784406, 45.484467849830082 ] } },
{ "type": "Feature", "properties": { "stop_id": 5192, "stop_name": "5200 Block SW Scholls Ferry", "jurisdic": "Beaverton", "zipcode": "97225", "type": "BUS", "direction": "W", "position": "AT", "ons": "1", "offs": "4", "total": "5", "monthly_lifts": 0 }, "geometry": { "type": "Point", "coordinates": [ -122.758069553749252, 45.481991689028398 ] } },
{ "type": "Feature", "properties": { "stop_id": 5155, "stop_name": "5900 Block SW Scholls Ferry (Crosswalk)", "jurisdic": "Washington Co.", "zipcode": "97225", "type": "BUS", "direction": "S", "position": "OP", "ons": "0", "offs": "2", "total": "2", "monthly_lifts": 0 }, "geometry": { "type": "Point", "coordinates": [ -122.763644831283287, 45.477517333453051 ] } },
{ "type": "Feature", "properties": { "stop_id": 5202, "stop_name": "SW Scholls Ferry & 88th", "jurisdic": "Washington Co.", "zipcode": "97223", "type": "BUS", "direction": "W", "position": "OP", "ons": "0", "offs": "2", "total": "2", "monthly_lifts": 0 }, "geometry": { "type": "Point", "coordinates": [ -122.7677608637443, 45.472979308104968 ] } },
{ "type": "Feature", "properties": { "stop_id": 5157, "stop_name": "6700 Block SW Scholls Ferry", "jurisdic": "Beaverton", "zipcode": "97008", "type": "BUS", "direction": "S", "position": "AT", "ons": "16", "offs": "39", "total": "55", "monthly_lifts": 4 }, "geometry": { "type": "Point", "coordinates": [ -122.774929686267186, 45.471240429003601 ] } },
{ "type": "Feature", "properties": { "stop_id": 5159, "stop_name": "7700 Block SW Scholls Ferry", "jurisdic": "Beaverton", "zipcode": "97008", "type": "BUS", "direction": "S", "position": "AT", "ons": "3", "offs": "3", "total": "6", "monthly_lifts": 18 }, "geometry": { "type": "Point", "coordinates": [ -122.778833808865798, 45.46384547339246 ] } },
{ "type": "Feature", "properties": { "stop_id": 5169, "stop_name": "SW Scholls Ferry & Crystal", "jurisdic": "Beaverton", "zipcode": "97008", "type": "BUS", "direction": "S", "position": "NS", "ons": "1", "offs": "6", "total": "7", "monthly_lifts": 0 }, "geometry": { "type": "Point", "coordinates": [ -122.779684475065068, 45.462216553806094 ] } },
{ "type": "Feature", "properties": { "stop_id": 5161, "stop_name": "8600 Block SW Scholls Ferry", "jurisdic": "Beaverton", "zipcode": "97008", "type": "BUS", "direction": "S", "position": "OP", "ons": "3", "offs": "39", "total": "42", "monthly_lifts": 3 }, "geometry": { "type": "Point", "coordinates": [ -122.781935796376729, 45.458026990013472 ] } },
{ "type": "Feature", "properties": { "stop_id": 5173, "stop_name": "SW Scholls Ferry & Eagle", "jurisdic": "Beaverton", "zipcode": "97008", "type": "BUS", "direction": "N", "position": "FS", "ons": "3", "offs": "1", "total": "4", "monthly_lifts": 6 }, "geometry": { "type": "Point", "coordinates": [ -122.778584166478808, 45.463795842017412 ] } },
{ "type": "Feature", "properties": { "stop_id": 5158, "stop_name": "6700 Block SW Scholls Ferry", "jurisdic": "Washington Co.", "zipcode": "97008", "type": "BUS", "direction": "N", "position": "AT", "ons": "19", "offs": "13", "total": "32", "monthly_lifts": 4 }, "geometry": { "type": "Point", "coordinates": [ -122.774680604199347, 45.471191438977783 ] } },
{ "type": "Feature", "properties": { "stop_id": 5206, "stop_name": "SW Scholls Ferry & 92nd", "jurisdic": "Washington Co.", "zipcode": "97223", "type": "BUS", "direction": "E", "position": "FS", "ons": "9", "offs": "2", "total": "11", "monthly_lifts": 0 }, "geometry": { "type": "Point", "coordinates": [ -122.771439106356411, 45.472433656511015 ] } },
{ "type": "Feature", "properties": { "stop_id": 5201, "stop_name": "SW Scholls Ferry & 86th", "jurisdic": "Washington Co.", "zipcode": "97223", "type": "BUS", "direction": "N", "position": "FS", "ons": "0", "offs": "1", "total": "1", "monthly_lifts": 0 }, "geometry": { "type": "Point", "coordinates": [ -122.765143332395454, 45.474308788847537 ] } },
{ "type": "Feature", "properties": { "stop_id": 5187, "stop_name": "SW Scholls Ferry & Nicol", "jurisdic": "Beaverton", "zipcode": "97225", "type": "BUS", "direction": "E", "position": "FS", "ons": "13", "offs": "9", "total": "22", "monthly_lifts": 0 }, "geometry": { "type": "Point", "coordinates": [ -122.760797772036995, 45.480462816447734 ] } },
{ "type": "Feature", "properties": { "stop_id": 5193, "stop_name": "5100 Block SW Scholls Ferry", "jurisdic": "Washington Co.", "zipcode": "97225", "type": "BUS", "direction": "E", "position": "AT", "ons": "31", "offs": "21", "total": "52", "monthly_lifts": 2 }, "geometry": { "type": "Point", "coordinates": [ -122.755556957358692, 45.483017192904533 ] } },
{ "type": "Feature", "properties": { "stop_id": 5186, "stop_name": "SW Scholls Ferry & Stephen Lane", "jurisdic": "Washington Co.", "zipcode": "97225", "type": "BUS", "direction": "E", "position": "NS", "ons": "9", "offs": "7", "total": "16", "monthly_lifts": 0 }, "geometry": { "type": "Point", "coordinates": [ -122.751772511017521, 45.484751423774071 ] } },
{ "type": "Feature", "properties": { "stop_id": 348, "stop_name": "SW Beaverton-Hillsdale & Oleson", "jurisdic": "Washington Co.", "zipcode": "97225", "type": "BUS", "direction": "E", "position": "NS", "ons": "137", "offs": "48", "total": "185", "monthly_lifts": 18 }, "geometry": { "type": "Point", "coordinates": [ -122.748414136583463, 45.486132802359606 ] } },
{ "type": "Feature", "properties": { "stop_id": 383, "stop_name": "6500 Block SW Beaverton-Hillsdale", "jurisdic": "Washington Co.", "zipcode": "97225", "type": "BUS", "direction": "E", "position": "AT", "ons": "29", "offs": "14", "total": "43", "monthly_lifts": 1 }, "geometry": { "type": "Point", "coordinates": [ -122.744399619677452, 45.48695567343885 ] } },
{ "type": "Feature", "properties": { "stop_id": 382, "stop_name": "SW Beaverton-Hillsdale & 62nd", "jurisdic": "Portland", "zipcode": "97221", "type": "BUS", "direction": "E", "position": "FS", "ons": "50", "offs": "24", "total": "74", "monthly_lifts": 22 }, "geometry": { "type": "Point", "coordinates": [ -122.740469312965331, 45.486960335039072 ] } },
{ "type": "Feature", "properties": { "stop_id": 351, "stop_name": "SW Beaverton-Hillsdale & Shattuck", "jurisdic": "Portland", "zipcode": "97221", "type": "BUS", "direction": "E", "position": "NS", "ons": "82", "offs": "28", "total": "110", "monthly_lifts": 26 }, "geometry": { "type": "Point", "coordinates": [ -122.732185342270824, 45.486929931325484 ] } },
{ "type": "Feature", "properties": { "stop_id": 377, "stop_name": "SW Beaverton-Hillsdale & 50th", "jurisdic": "Portland", "zipcode": "97221", "type": "BUS", "direction": "E", "position": "NS", "ons": "20", "offs": "4", "total": "24", "monthly_lifts": 0 }, "geometry": { "type": "Point", "coordinates": [ -122.728434376959385, 45.48691644004532 ] } },
{ "type": "Feature", "properties": { "stop_id": 375, "stop_name": "SW Beaverton-Hillsdale & 45th", "jurisdic": "Portland", "zipcode": "97221", "type": "BUS", "direction": "E", "position": "FS", "ons": "56", "offs": "23", "total": "79", "monthly_lifts": 1 }, "geometry": { "type": "Point", "coordinates": [ -122.722175593984772, 45.485579334593716 ] } },
{ "type": "Feature", "properties": { "stop_id": 373, "stop_name": "SW Beaverton-Hillsdale & 42nd", "jurisdic": "Portland", "zipcode": "97221", "type": "BUS", "direction": "E", "position": "FS", "ons": "41", "offs": "11", "total": "52", "monthly_lifts": 4 }, "geometry": { "type": "Point", "coordinates": [ -122.719881264141293, 45.48536438717197 ] } },
{ "type": "Feature", "properties": { "stop_id": 369, "stop_name": "SW Beaverton-Hillsdale & 35th", "jurisdic": "Portland", "zipcode": "97239", "type": "BUS", "direction": "E", "position": "FS", "ons": "24", "offs": "8", "total": "32", "monthly_lifts": 0 }, "geometry": { "type": "Point", "coordinates": [ -122.712667506880834, 45.482636764785397 ] } },
{ "type": "Feature", "properties": { "stop_id": 368, "stop_name": "SW Beaverton-Hillsdale & 33rd", "jurisdic": "Portland", "zipcode": "97239", "type": "BUS", "direction": "E", "position": "NS", "ons": "25", "offs": "6", "total": "31", "monthly_lifts": 7 }, "geometry": { "type": "Point", "coordinates": [ -122.710513810773477, 45.481762719703056 ] } },
{ "type": "Feature", "properties": { "stop_id": 364, "stop_name": "SW Beaverton-Hillsdale & 25th", "jurisdic": "Portland", "zipcode": "97239", "type": "BUS", "direction": "E", "position": "FS", "ons": "15", "offs": "4", "total": "19", "monthly_lifts": 0 }, "geometry": { "type": "Point", "coordinates": [ -122.702192451320954, 45.479869801725556 ] } },
{ "type": "Feature", "properties": { "stop_id": 925, "stop_name": "SW Capitol & Bertha Ct", "jurisdic": "Portland", "zipcode": "97239", "type": "BUS", "direction": "E", "position": "FS", "ons": "123", "offs": "120", "total": "243", "monthly_lifts": 19 }, "geometry": { "type": "Point", "coordinates": [ -122.696367527978907, 45.47808007192193 ] } },
{ "type": "Feature", "properties": { "stop_id": 156, "stop_name": "4900 Block SW Barbur", "jurisdic": "Portland", "zipcode": "97239", "type": "BUS", "direction": "N", "position": "AT", "ons": "76", "offs": "58", "total": "134", "monthly_lifts": 2 }, "geometry": { "type": "Point", "coordinates": [ -122.682514639880267, 45.487677128400868 ] } },
{ "type": "Feature", "properties": { "stop_id": 1930, "stop_name": "SW Naito Parkway & Hooker", "jurisdic": "Portland", "zipcode": "97201", "type": "BUS", "direction": "N", "position": "AT", "ons": "39", "offs": "71", "total": "110", "monthly_lifts": 0 }, "geometry": { "type": "Point", "coordinates": [ -122.677616856901068, 45.502103926814975 ] } },
{ "type": "Feature", "properties": { "stop_id": 5567, "stop_name": "SW Sunset Blvd & 18th Dr", "jurisdic": "Portland", "zipcode": "97239", "type": "BUS", "direction": "N", "position": "FS", "ons": "0", "offs": "1", "total": "1", "monthly_lifts": 0 }, "geometry": { "type": "Point", "coordinates": [ -122.696433095390958, 45.481935243081089 ] } },
{ "type": "Feature", "properties": { "stop_id": 5562, "stop_name": "SW Sunset Blvd & Mitchell", "jurisdic": "Portland", "zipcode": "97239", "type": "BUS", "direction": "W", "position": "OP", "ons": "0", "offs": "1", "total": "1", "monthly_lifts": 0 }, "geometry": { "type": "Point", "coordinates": [ -122.699360875160295, 45.485906340025174 ] } },
{ "type": "Feature", "properties": { "stop_id": 5564, "stop_name": "SW Sunset Blvd & Richardson", "jurisdic": "Portland", "zipcode": "97239", "type": "BUS", "direction": "N", "position": "NS", "ons": "0", "offs": "0", "total": "0", "monthly_lifts": 0 }, "geometry": { "type": "Point", "coordinates": [ -122.700749747799989, 45.486775122216244 ] } },
{ "type": "Feature", "properties": { "stop_id": 5574, "stop_name": "SW Sunset Blvd & 29th", "jurisdic": "Portland", "zipcode": "97239", "type": "BUS", "direction": "W", "position": "NS", "ons": "0", "offs": "0", "total": "0", "monthly_lifts": 0 }, "geometry": { "type": "Point", "coordinates": [ -122.706353561415483, 45.488753911987089 ] } },
{ "type": "Feature", "properties": { "stop_id": 1519, "stop_name": "SW Dosch & Hamilton", "jurisdic": "Portland", "zipcode": "97239", "type": "BUS", "direction": "N", "position": "NS", "ons": "0", "offs": "0", "total": "0", "monthly_lifts": 0 }, "geometry": { "type": "Point", "coordinates": [ -122.710280962539798, 45.490476529911824 ] } },
{ "type": "Feature", "properties": { "stop_id": 2469, "stop_name": "SW Hamilton & Hamilton Ct", "jurisdic": "Portland", "zipcode": "97221", "type": "BUS", "direction": "W", "position": "OP", "ons": "0", "offs": "1", "total": "1", "monthly_lifts": 0 }, "geometry": { "type": "Point", "coordinates": [ -122.713460311533538, 45.490670815063098 ] } },
{ "type": "Feature", "properties": { "stop_id": 2475, "stop_name": "SW Hamilton & 36th Pl", "jurisdic": "Portland", "zipcode": "97221", "type": "BUS", "direction": "W", "position": "FS", "ons": "0", "offs": "0", "total": "0", "monthly_lifts": 0 }, "geometry": { "type": "Point", "coordinates": [ -122.714486621726024, 45.490700512360846 ] } },
{ "type": "Feature", "properties": { "stop_id": 2479, "stop_name": "SW Hamilton & 41st", "jurisdic": "Portland", "zipcode": "97221", "type": "BUS", "direction": "W", "position": "NS", "ons": "0", "offs": "0", "total": "0", "monthly_lifts": 0 }, "geometry": { "type": "Point", "coordinates": [ -122.719436275712198, 45.490737684985319 ] } },
{ "type": "Feature", "properties": { "stop_id": 2481, "stop_name": "SW Hamilton & 45th", "jurisdic": "Portland", "zipcode": "97221", "type": "BUS", "direction": "W", "position": "OP", "ons": "0", "offs": "1", "total": "1", "monthly_lifts": 0 }, "geometry": { "type": "Point", "coordinates": [ -122.723355790312894, 45.490754627612986 ] } },
{ "type": "Feature", "properties": { "stop_id": 2471, "stop_name": "SW Hamilton & Shattuck", "jurisdic": "Portland", "zipcode": "97221", "type": "BUS", "direction": "W", "position": "NS", "ons": "0", "offs": "1", "total": "1", "monthly_lifts": 0 }, "geometry": { "type": "Point", "coordinates": [ -122.72875170189738, 45.4908289557657 ] } },
{ "type": "Feature", "properties": { "stop_id": 2487, "stop_name": "SW Hamilton & 54th Pl", "jurisdic": "Portland", "zipcode": "97221", "type": "BUS", "direction": "W", "position": "FS", "ons": "0", "offs": "1", "total": "1", "monthly_lifts": 0 }, "geometry": { "type": "Point", "coordinates": [ -122.732841783365615, 45.4908018176233 ] } },
{ "type": "Feature", "properties": { "stop_id": 2463, "stop_name": "SW Hamilton & Semler Way", "jurisdic": "Portland", "zipcode": "97221", "type": "BUS", "direction": "W", "position": "NS", "ons": "0", "offs": "1", "total": "1", "monthly_lifts": 0 }, "geometry": { "type": "Point", "coordinates": [ -122.740589199203015, 45.490869714594901 ] } },
{ "type": "Feature", "properties": { "stop_id": 5195, "stop_name": "SW Scholls Ferry & Seymour", "jurisdic": "Washington Co.", "zipcode": "97225", "type": "BUS", "direction": "S", "position": "OP", "ons": "0", "offs": "0", "total": "0", "monthly_lifts": 0 }, "geometry": { "type": "Point", "coordinates": [ -122.745545675805701, 45.489712158621352 ] } },
{ "type": "Feature", "properties": { "stop_id": 5199, "stop_name": "4400 Block SW Scholls Ferry", "jurisdic": "Washington Co.", "zipcode": "97225", "type": "BUS", "direction": "S", "position": "AT", "ons": "0", "offs": "0", "total": "0", "monthly_lifts": 0 }, "geometry": { "type": "Point", "coordinates": [ -122.746984465852393, 45.487558363385858 ] } },
{ "type": "Feature", "properties": { "stop_id": 385, "stop_name": "SW Beaverton-Hillsdale & 78th", "jurisdic": "Washington Co.", "zipcode": "97225", "type": "BUS", "direction": "W", "position": "NS", "ons": "42", "offs": "30", "total": "72", "monthly_lifts": 11 }, "geometry": { "type": "Point", "coordinates": [ -122.756776862578519, 45.486260060377468 ] } },
{ "type": "Feature", "properties": { "stop_id": 9762, "stop_name": "SW 78th & Brentwood", "jurisdic": "Washington Co.", "zipcode": "97225", "type": "BUS", "direction": "N", "position": "NS", "ons": "0", "offs": "0", "total": "0", "monthly_lifts": 0 }, "geometry": { "type": "Point", "coordinates": [ -122.757477047020117, 45.490899169270342 ] } },
{ "type": "Feature", "properties": { "stop_id": 9763, "stop_name": "SW Brentwood & Laurelwood", "jurisdic": "Beaverton", "zipcode": "97225", "type": "BUS", "direction": "W", "position": "NS", "ons": "0", "offs": "0", "total": "0", "monthly_lifts": 0 }, "geometry": { "type": "Point", "coordinates": [ -122.760709933565465, 45.49110921669817 ] } },
{ "type": "Feature", "properties": { "stop_id": 9765, "stop_name": "8500 Block SW Apple Way", "jurisdic": "Beaverton", "zipcode": "97225", "type": "BUS", "direction": "S", "position": "FS", "ons": "0", "offs": "0", "total": "0", "monthly_lifts": 0 }, "geometry": { "type": "Point", "coordinates": [ -122.764844283815776, 45.485120975384227 ] } },
{ "type": "Feature", "properties": { "stop_id": 9760, "stop_name": "SW Apple Way & Laurelwood", "jurisdic": "Beaverton", "zipcode": "97225", "type": "BUS", "direction": "E", "position": "NS", "ons": "0", "offs": "0", "total": "0", "monthly_lifts": 0 }, "geometry": { "type": "Point", "coordinates": [ -122.761133569769711, 45.485202179397753 ] } },
{ "type": "Feature", "properties": { "stop_id": 3367, "stop_name": "SW Laurelwood & Laurel", "jurisdic": "Beaverton", "zipcode": "97225", "type": "BUS", "direction": "N", "position": "OP", "ons": "59", "offs": "0", "total": "59", "monthly_lifts": 0 }, "geometry": { "type": "Point", "coordinates": [ -122.760764281281681, 45.489268293984551 ] } },
{ "type": "Feature", "properties": { "stop_id": 593, "stop_name": "SW Laurelwood & Brentwood", "jurisdic": "Beaverton", "zipcode": "97225", "type": "BUS", "direction": "N", "position": "NS", "ons": "1", "offs": "0", "total": "1", "monthly_lifts": 0 }, "geometry": { "type": "Point", "coordinates": [ -122.760708007219804, 45.490950760190024 ] } },
{ "type": "Feature", "properties": { "stop_id": 7901, "stop_name": "SW 78th & Westmoor", "jurisdic": "Washington Co.", "zipcode": "97225", "type": "BUS", "direction": "S", "position": "NS", "ons": "0", "offs": "0", "total": "0", "monthly_lifts": 0 }, "geometry": { "type": "Point", "coordinates": [ -122.756823968599335, 45.48841338714265 ] } },
{ "type": "Feature", "properties": { "stop_id": 7900, "stop_name": "SW 78th & Beaverton-Hillsdale Hwy", "jurisdic": "Washington Co.", "zipcode": "97225", "type": "BUS", "direction": "S", "position": "NS", "ons": "0", "offs": "0", "total": "0", "monthly_lifts": 0 }, "geometry": { "type": "Point", "coordinates": [ -122.757071861348038, 45.486296777786599 ] } },
{ "type": "Feature", "properties": { "stop_id": 331, "stop_name": "7300 Block SW Beaverton-Hillsdale", "jurisdic": "Washington Co.", "zipcode": "97225", "type": "BUS", "direction": "E", "position": "OP", "ons": "5", "offs": "11", "total": "16", "monthly_lifts": 3 }, "geometry": { "type": "Point", "coordinates": [ -122.752022865166708, 45.485992759762603 ] } },
{ "type": "Feature", "properties": { "stop_id": 5196, "stop_name": "SW Scholls Ferry & Seymour", "jurisdic": "Washington Co.", "zipcode": "97225", "type": "BUS", "direction": "N", "position": "FS", "ons": "0", "offs": "0", "total": "0", "monthly_lifts": 0 }, "geometry": { "type": "Point", "coordinates": [ -122.745318087592281, 45.489753601618233 ] } },
{ "type": "Feature", "properties": { "stop_id": 2465, "stop_name": "SW Hamilton & Scholls Ferry", "jurisdic": "Portland", "zipcode": "97221", "type": "BUS", "direction": "E", "position": "FS", "ons": "0", "offs": "0", "total": "0", "monthly_lifts": 0 }, "geometry": { "type": "Point", "coordinates": [ -122.74377916630543, 45.490784566619467 ] } },
{ "type": "Feature", "properties": { "stop_id": 2462, "stop_name": "5700 Block SW Hamilton", "jurisdic": "Portland", "zipcode": "97221", "type": "BUS", "direction": "E", "position": "AT", "ons": "0", "offs": "0", "total": "0", "monthly_lifts": 0 }, "geometry": { "type": "Point", "coordinates": [ -122.735659546306479, 45.490719410569561 ] } },
{ "type": "Feature", "properties": { "stop_id": 9405, "stop_name": "SW Hamilton & 55th Pl", "jurisdic": "Portland", "zipcode": "97221", "type": "BUS", "direction": "E", "position": "OP", "ons": "0", "offs": "0", "total": "0", "monthly_lifts": 0 }, "geometry": { "type": "Point", "coordinates": [ -122.734786987128473, 45.490723108057452 ] } },
{ "type": "Feature", "properties": { "stop_id": 8229, "stop_name": "SW Hamilton & 54th Pl", "jurisdic": "Portland", "zipcode": "97221", "type": "BUS", "direction": "E", "position": "FS", "ons": "0", "offs": "0", "total": "0", "monthly_lifts": 0 }, "geometry": { "type": "Point", "coordinates": [ -122.732900567873273, 45.490711947545918 ] } },
{ "type": "Feature", "properties": { "stop_id": 2486, "stop_name": "SW Hamilton & 53rd", "jurisdic": "Portland", "zipcode": "97221", "type": "BUS", "direction": "E", "position": "FS", "ons": "2", "offs": "0", "total": "2", "monthly_lifts": 0 }, "geometry": { "type": "Point", "coordinates": [ -122.731386650890528, 45.490721079146056 ] } },
{ "type": "Feature", "properties": { "stop_id": 2472, "stop_name": "SW Hamilton & Shattuck", "jurisdic": "Portland", "zipcode": "97221", "type": "BUS", "direction": "E", "position": "NS", "ons": "1", "offs": "0", "total": "1", "monthly_lifts": 0 }, "geometry": { "type": "Point", "coordinates": [ -122.72928444269364, 45.490721063117668 ] } },
{ "type": "Feature", "properties": { "stop_id": 2484, "stop_name": "SW Hamilton & 47th", "jurisdic": "Portland", "zipcode": "97221", "type": "BUS", "direction": "E", "position": "FS", "ons": "0", "offs": "0", "total": "0", "monthly_lifts": 0 }, "geometry": { "type": "Point", "coordinates": [ -122.724761634345853, 45.490671470194975 ] } },
{ "type": "Feature", "properties": { "stop_id": 2482, "stop_name": "SW Hamilton & 45th", "jurisdic": "Portland", "zipcode": "97221", "type": "BUS", "direction": "E", "position": "NS", "ons": "1", "offs": "0", "total": "1", "monthly_lifts": 0 }, "geometry": { "type": "Point", "coordinates": [ -122.723252796913485, 45.490662615030828 ] } },
{ "type": "Feature", "properties": { "stop_id": 2477, "stop_name": "SW Hamilton & 39th Dr", "jurisdic": "Portland", "zipcode": "97221", "type": "BUS", "direction": "E", "position": "FS", "ons": "0", "offs": "0", "total": "0", "monthly_lifts": 0 }, "geometry": { "type": "Point", "coordinates": [ -122.716654520768273, 45.490597937711492 ] } },
{ "type": "Feature", "properties": { "stop_id": 2476, "stop_name": "SW Hamilton & 36th Pl", "jurisdic": "Portland", "zipcode": "97221", "type": "BUS", "direction": "E", "position": "OP", "ons": "0", "offs": "0", "total": "0", "monthly_lifts": 0 }, "geometry": { "type": "Point", "coordinates": [ -122.714295318009633, 45.490588847046745 ] } },
{ "type": "Feature", "properties": { "stop_id": 2468, "stop_name": "SW Hamilton & Hamilton Ct", "jurisdic": "Portland", "zipcode": "97221", "type": "BUS", "direction": "E", "position": "FS", "ons": "0", "offs": "0", "total": "0", "monthly_lifts": 0 }, "geometry": { "type": "Point", "coordinates": [ -122.713294181319455, 45.490583123956824 ] } },
{ "type": "Feature", "properties": { "stop_id": 2474, "stop_name": "SW Hamilton & 34th", "jurisdic": "Portland", "zipcode": "97239", "type": "BUS", "direction": "E", "position": "NS", "ons": "0", "offs": "0", "total": "0", "monthly_lifts": 0 }, "geometry": { "type": "Point", "coordinates": [ -122.712100415703489, 45.490572940699941 ] } },
{ "type": "Feature", "properties": { "stop_id": 2466, "stop_name": "SW Hamilton & Dosch", "jurisdic": "Portland", "zipcode": "97239", "type": "BUS", "direction": "E", "position": "NS", "ons": "0", "offs": "0", "total": "0", "monthly_lifts": 0 }, "geometry": { "type": "Point", "coordinates": [ -122.710556317494706, 45.490549142163886 ] } },
{ "type": "Feature", "properties": { "stop_id": 5557, "stop_name": "SW Sunset Blvd & Dosch", "jurisdic": "Portland", "zipcode": "97239", "type": "BUS", "direction": "E", "position": "FS", "ons": "0", "offs": "0", "total": "0", "monthly_lifts": 0 }, "geometry": { "type": "Point", "coordinates": [ -122.709800593123347, 45.488668731737022 ] } },
{ "type": "Feature", "properties": { "stop_id": 5576, "stop_name": "SW Sunset Blvd & 31st Dr", "jurisdic": "Portland", "zipcode": "97239", "type": "BUS", "direction": "E", "position": "FS", "ons": "0", "offs": "0", "total": "0", "monthly_lifts": 0 }, "geometry": { "type": "Point", "coordinates": [ -122.708404918453908, 45.488662048284972 ] } },
{ "type": "Feature", "properties": { "stop_id": 5558, "stop_name": "SW Sunset Blvd & Dosch Park Ln", "jurisdic": "Portland", "zipcode": "97239", "type": "BUS", "direction": "E", "position": "FS", "ons": "0", "offs": "0", "total": "0", "monthly_lifts": 0 }, "geometry": { "type": "Point", "coordinates": [ -122.706370846360429, 45.488632641072776 ] } },
{ "type": "Feature", "properties": { "stop_id": 5573, "stop_name": "SW Sunset Blvd & 27th", "jurisdic": "Portland", "zipcode": "97239", "type": "BUS", "direction": "E", "position": "OP", "ons": "0", "offs": "0", "total": "0", "monthly_lifts": 0 }, "geometry": { "type": "Point", "coordinates": [ -122.705064141592032, 45.488702793281085 ] } },
{ "type": "Feature", "properties": { "stop_id": 5569, "stop_name": "SW Sunset Blvd & 25th", "jurisdic": "Portland", "zipcode": "97239", "type": "BUS", "direction": "S", "position": "OP", "ons": "2", "offs": "0", "total": "2", "monthly_lifts": 0 }, "geometry": { "type": "Point", "coordinates": [ -122.702571214725623, 45.488164838446998 ] } },
{ "type": "Feature", "properties": { "stop_id": 5565, "stop_name": "SW Sunset Blvd & Richardson", "jurisdic": "Portland", "zipcode": "97239", "type": "BUS", "direction": "S", "position": "FS", "ons": "0", "offs": "0", "total": "0", "monthly_lifts": 0 }, "geometry": { "type": "Point", "coordinates": [ -122.701159595726693, 45.486921413055086 ] } },
{ "type": "Feature", "properties": { "stop_id": 5563, "stop_name": "SW Sunset Blvd & Mitchell", "jurisdic": "Portland", "zipcode": "97239", "type": "BUS", "direction": "E", "position": "FS", "ons": "1", "offs": "0", "total": "1", "monthly_lifts": 0 }, "geometry": { "type": "Point", "coordinates": [ -122.699366841353694, 45.48575323530121 ] } },
{ "type": "Feature", "properties": { "stop_id": 5554, "stop_name": "SW Sunset Blvd & Boundary", "jurisdic": "Portland", "zipcode": "97239", "type": "BUS", "direction": "S", "position": "NS", "ons": "0", "offs": "0", "total": "0", "monthly_lifts": 0 }, "geometry": { "type": "Point", "coordinates": [ -122.698084121241195, 45.484801796139934 ] } },
{ "type": "Feature", "properties": { "stop_id": 5566, "stop_name": "SW Sunset Blvd & 18th Dr", "jurisdic": "Portland", "zipcode": "97239", "type": "BUS", "direction": "S", "position": "FS", "ons": "0", "offs": "0", "total": "0", "monthly_lifts": 0 }, "geometry": { "type": "Point", "coordinates": [ -122.696305970727678, 45.481652501886245 ] } },
{ "type": "Feature", "properties": { "stop_id": 929, "stop_name": "SW Capitol & Sunset", "jurisdic": "Portland", "zipcode": "97239", "type": "BUS", "direction": "E", "position": "OP", "ons": "313", "offs": "436", "total": "749", "monthly_lifts": 39 }, "geometry": { "type": "Point", "coordinates": [ -122.692856403660073, 45.47879137447439 ] } },
{ "type": "Feature", "properties": { "stop_id": 956, "stop_name": "SW Capitol & Terwilliger", "jurisdic": "Portland", "zipcode": "97239", "type": "BUS", "direction": "E", "position": "NS", "ons": "14", "offs": "16", "total": "30", "monthly_lifts": 0 }, "geometry": { "type": "Point", "coordinates": [ -122.687280930436316, 45.48004111614928 ] } },
{ "type": "Feature", "properties": { "stop_id": 8262, "stop_name": "SW Watson & Broadway", "jurisdic": "Beaverton", "zipcode": "97005", "type": "BUS", "direction": "S", "position": "NS", "ons": "115", "offs": "6", "total": "121", "monthly_lifts": 11 }, "geometry": { "type": "Point", "coordinates": [ -122.806367536783569, 45.487563149615205 ] } },
{ "type": "Feature", "properties": { "stop_id": 6179, "stop_name": "SW Watson & 10th", "jurisdic": "Beaverton", "zipcode": "97005", "type": "BUS", "direction": "S", "position": "FS", "ons": "10", "offs": "15", "total": "25", "monthly_lifts": 5 }, "geometry": { "type": "Point", "coordinates": [ -122.806188957238703, 45.479697283177636 ] } },
{ "type": "Feature", "properties": { "stop_id": 2301, "stop_name": "SW Hall & 13th", "jurisdic": "Beaverton", "zipcode": "97005", "type": "BUS", "direction": "S", "position": "NS", "ons": "6", "offs": "26", "total": "32", "monthly_lifts": 4 }, "geometry": { "type": "Point", "coordinates": [ -122.805791113875529, 45.477878164095465 ] } },
{ "type": "Feature", "properties": { "stop_id": 2286, "stop_name": "SW Hall & Hart", "jurisdic": "Beaverton", "zipcode": "97008", "type": "BUS", "direction": "S", "position": "FS", "ons": "16", "offs": "25", "total": "41", "monthly_lifts": 2 }, "geometry": { "type": "Point", "coordinates": [ -122.803910409244878, 45.466542174663374 ] } },
{ "type": "Feature", "properties": { "stop_id": 2263, "stop_name": "7800 Block SW Hall", "jurisdic": "Beaverton", "zipcode": "97008", "type": "BUS", "direction": "S", "position": "AT", "ons": "14", "offs": "21", "total": "35", "monthly_lifts": 1 }, "geometry": { "type": "Point", "coordinates": [ -122.801281687029217, 45.463059517069283 ] } },
{ "type": "Feature", "properties": { "stop_id": 2272, "stop_name": "SW Hall & Cascade", "jurisdic": "Beaverton", "zipcode": "97008", "type": "BUS", "direction": "E", "position": "NS", "ons": "14", "offs": "33", "total": "47", "monthly_lifts": 6 }, "geometry": { "type": "Point", "coordinates": [ -122.787425223141554, 45.458776803424847 ] } },
{ "type": "Feature", "properties": { "stop_id": 2296, "stop_name": "SW Hall & Scholls Ferry", "jurisdic": "Beaverton", "zipcode": "97223", "type": "BUS", "direction": "E", "position": "FS", "ons": "18", "offs": "64", "total": "82", "monthly_lifts": 10 }, "geometry": { "type": "Point", "coordinates": [ -122.782041541716254, 45.456531542301683 ] } },
{ "type": "Feature", "properties": { "stop_id": 2246, "stop_name": "SW Greenburg & 98th", "jurisdic": "Tigard", "zipcode": "97223", "type": "BUS", "direction": "E", "position": "FS", "ons": "16", "offs": "14", "total": "30", "monthly_lifts": 0 }, "geometry": { "type": "Point", "coordinates": [ -122.777618263003831, 45.437359212575295 ] } },
{ "type": "Feature", "properties": { "stop_id": 2243, "stop_name": "SW Greenburg & 95th", "jurisdic": "Tigard", "zipcode": "97223", "type": "BUS", "direction": "E", "position": "FS", "ons": "6", "offs": "7", "total": "13", "monthly_lifts": 0 }, "geometry": { "type": "Point", "coordinates": [ -122.77422131896607, 45.436728035261446 ] } },
{ "type": "Feature", "properties": { "stop_id": 3673, "stop_name": "SW Main & Scoffins", "jurisdic": "Tigard", "zipcode": "97223", "type": "BUS", "direction": "W", "position": "NS", "ons": "113", "offs": "342", "total": "455", "monthly_lifts": 43 }, "geometry": { "type": "Point", "coordinates": [ -122.76822689782739, 45.432569102323903 ] } },
{ "type": "Feature", "properties": { "stop_id": 10180, "stop_name": "Tigard Transit Center", "jurisdic": "Tigard", "zipcode": "97223", "type": "BUS", "direction": "S", "position": "AT", "ons": "144", "offs": "102", "total": "246", "monthly_lifts": 22 }, "geometry": { "type": "Point", "coordinates": [ -122.769114405032553, 45.430344543164765 ] } },
{ "type": "Feature", "properties": { "stop_id": 1123, "stop_name": "SW Commercial & Hall", "jurisdic": "Tigard", "zipcode": "97223", "type": "BUS", "direction": "S", "position": "NS", "ons": "7", "offs": "7", "total": "14", "monthly_lifts": 0 }, "geometry": { "type": "Point", "coordinates": [ -122.766604576136132, 45.428570503316166 ] } },
{ "type": "Feature", "properties": { "stop_id": 2818, "stop_name": "SW Hunziker & 72nd", "jurisdic": "Tigard", "zipcode": "97223", "type": "BUS", "direction": "E", "position": "NS", "ons": "6", "offs": "36", "total": "42", "monthly_lifts": 0 }, "geometry": { "type": "Point", "coordinates": [ -122.752444778928648, 45.425784769844803 ] } },
{ "type": "Feature", "properties": { "stop_id": 7847, "stop_name": "SW 68th & Franklin", "jurisdic": "Tigard", "zipcode": "97223", "type": "BUS", "direction": "N", "position": "NS", "ons": "4", "offs": "21", "total": "25", "monthly_lifts": 2 }, "geometry": { "type": "Point", "coordinates": [ -122.74671197087217, 45.43016161364163 ] } },
{ "type": "Feature", "properties": { "stop_id": 2257, "stop_name": "SW Haines & Lesser", "jurisdic": "Portland", "zipcode": "97219", "type": "BUS", "direction": "E", "position": "NS", "ons": "2", "offs": "6", "total": "8", "monthly_lifts": 0 }, "geometry": { "type": "Point", "coordinates": [ -122.741220616585579, 45.436879774673393 ] } },
{ "type": "Feature", "properties": { "stop_id": 3387, "stop_name": "12100 Block SW Lesser", "jurisdic": "Portland", "zipcode": "97219", "type": "BUS", "direction": "N", "position": "AT", "ons": "0", "offs": "0", "total": "0", "monthly_lifts": 0 }, "geometry": { "type": "Point", "coordinates": [ -122.741112201604636, 45.438294733562849 ] } },
{ "type": "Feature", "properties": { "stop_id": 3393, "stop_name": "SW Lesser & 60th", "jurisdic": "Portland", "zipcode": "97219", "type": "BUS", "direction": "E", "position": "FS", "ons": "2", "offs": "3", "total": "5", "monthly_lifts": 1 }, "geometry": { "type": "Point", "coordinates": [ -122.73847290883478, 45.440395876025327 ] } },
{ "type": "Feature", "properties": { "stop_id": 672, "stop_name": "Kerr & Jefferson Pkwy", "jurisdic": "Lake Oswego", "zipcode": "97035", "type": "BUS", "direction": "S", "position": "NS", "ons": "8", "offs": "7", "total": "15", "monthly_lifts": 0 }, "geometry": { "type": "Point", "coordinates": [ -122.718475607588161, 45.431097803561023 ] } },
{ "type": "Feature", "properties": { "stop_id": 3141, "stop_name": "Kerr & Touchstone", "jurisdic": "Lake Oswego", "zipcode": "97035", "type": "BUS", "direction": "E", "position": "NS", "ons": "4", "offs": "16", "total": "20", "monthly_lifts": 0 }, "geometry": { "type": "Point", "coordinates": [ -122.715145746209942, 45.428013817799624 ] } },
{ "type": "Feature", "properties": { "stop_id": 3137, "stop_name": "Kerr & The Grotto", "jurisdic": "Lake Oswego", "zipcode": "97035", "type": "BUS", "direction": "S", "position": "FS", "ons": "5", "offs": "7", "total": "12", "monthly_lifts": 0 }, "geometry": { "type": "Point", "coordinates": [ -122.707389951129315, 45.426114431576359 ] } },
{ "type": "Feature", "properties": { "stop_id": 1232, "stop_name": "Country Club & Uplands", "jurisdic": "Lake Oswego", "zipcode": "97034", "type": "BUS", "direction": "E", "position": "NS", "ons": "0", "offs": "0", "total": "0", "monthly_lifts": 0 }, "geometry": { "type": "Point", "coordinates": [ -122.69579016120349, 45.423164999711382 ] } },
{ "type": "Feature", "properties": { "stop_id": 1222, "stop_name": "Country Club & Iron Mtn", "jurisdic": "Lake Oswego", "zipcode": "97034", "type": "BUS", "direction": "E", "position": "NS", "ons": "0", "offs": "3", "total": "3", "monthly_lifts": 0 }, "geometry": { "type": "Point", "coordinates": [ -122.679114979324964, 45.422850067198688 ] } },
{ "type": "Feature", "properties": { "stop_id": 6, "stop_name": "A Ave & 8th St", "jurisdic": "Lake Oswego", "zipcode": "97034", "type": "BUS", "direction": "E", "position": "NS", "ons": "0", "offs": "3", "total": "3", "monthly_lifts": 0 }, "geometry": { "type": "Point", "coordinates": [ -122.673069943671408, 45.420220793811581 ] } },
{ "type": "Feature", "properties": { "stop_id": 9545, "stop_name": "Lake Oswego Transit Center", "jurisdic": "Lake Oswego", "zipcode": "97034", "type": "BUS", "direction": "E", "position": "NS", "ons": "35", "offs": "135", "total": "170", "monthly_lifts": 11 }, "geometry": { "type": "Point", "coordinates": [ -122.668105490190939, 45.421060215704451 ] } },
{ "type": "Feature", "properties": { "stop_id": 4, "stop_name": "A Ave & 10th St", "jurisdic": "Lake Oswego", "zipcode": "97034", "type": "BUS", "direction": "W", "position": "NS", "ons": "2", "offs": "0", "total": "2", "monthly_lifts": 0 }, "geometry": { "type": "Point", "coordinates": [ -122.675152487814771, 45.420706781000106 ] } },
{ "type": "Feature", "properties": { "stop_id": 1223, "stop_name": "Country Club & Knaus Rd", "jurisdic": "Lake Oswego", "zipcode": "97034", "type": "BUS", "direction": "W", "position": "NS", "ons": "2", "offs": "0", "total": "2", "monthly_lifts": 0 }, "geometry": { "type": "Point", "coordinates": [ -122.688845925514386, 45.423184842245149 ] } },
{ "type": "Feature", "properties": { "stop_id": 1227, "stop_name": "Country Club & Redwood", "jurisdic": "Lake Oswego", "zipcode": "97034", "type": "BUS", "direction": "W", "position": "NS", "ons": "0", "offs": "0", "total": "0", "monthly_lifts": 0 }, "geometry": { "type": "Point", "coordinates": [ -122.692890892737935, 45.423201925499576 ] } },
{ "type": "Feature", "properties": { "stop_id": 1233, "stop_name": "Country Club & Wembley Park", "jurisdic": "Lake Oswego", "zipcode": "97034", "type": "BUS", "direction": "W", "position": "OP", "ons": "0", "offs": "1", "total": "1", "monthly_lifts": 0 }, "geometry": { "type": "Point", "coordinates": [ -122.697651868192196, 45.423848878212006 ] } },
{ "type": "Feature", "properties": { "stop_id": 1226, "stop_name": "Country Club & Hazel Road", "jurisdic": "Lake Oswego", "zipcode": "97034", "type": "BUS", "direction": "W", "position": "FS", "ons": "21", "offs": "17", "total": "38", "monthly_lifts": 13 }, "geometry": { "type": "Point", "coordinates": [ -122.702544855055336, 45.425162882566063 ] } },
{ "type": "Feature", "properties": { "stop_id": 1229, "stop_name": "Country Club & Sundeleaf", "jurisdic": "Lake Oswego", "zipcode": "97034", "type": "BUS", "direction": "W", "position": "OP", "ons": "1", "offs": "0", "total": "1", "monthly_lifts": 0 }, "geometry": { "type": "Point", "coordinates": [ -122.704815296003474, 45.425239045169306 ] } },
{ "type": "Feature", "properties": { "stop_id": 8273, "stop_name": "12900 Block SW Canyon", "jurisdic": "Beaverton", "zipcode": "97005", "type": "BUS", "direction": "W", "position": "AT", "ons": "33", "offs": "8", "total": "41", "monthly_lifts": 4 }, "geometry": { "type": "Point", "coordinates": [ -122.809653540628716, 45.488384115193625 ] } },
{ "type": "Feature", "properties": { "stop_id": 5599, "stop_name": "SW Tualatin Valley Hwy & Murray", "jurisdic": "Beaverton", "zipcode": "97003", "type": "BUS", "direction": "W", "position": "FS", "ons": "108", "offs": "36", "total": "144", "monthly_lifts": 11 }, "geometry": { "type": "Point", "coordinates": [ -122.826770990986176, 45.48977032366632 ] } },
{ "type": "Feature", "properties": { "stop_id": 5604, "stop_name": "SW Tualatin Valley Hwy & St Marys Home", "jurisdic": "Beaverton", "zipcode": "97003", "type": "BUS", "direction": "W", "position": "AT", "ons": "5", "offs": "9", "total": "14", "monthly_lifts": 0 }, "geometry": { "type": "Point", "coordinates": [ -122.847073420282385, 45.491903520223694 ] } },
{ "type": "Feature", "properties": { "stop_id": 5621, "stop_name": "SW Tualatin Valley Hwy & 170th", "jurisdic": "Washington Co.", "zipcode": "97003", "type": "BUS", "direction": "W", "position": "FS", "ons": "73", "offs": "114", "total": "187", "monthly_lifts": 9 }, "geometry": { "type": "Point", "coordinates": [ -122.852405918440638, 45.492468001951465 ] } },
{ "type": "Feature", "properties": { "stop_id": 5625, "stop_name": "SW Tualatin Valley Hwy & 178th", "jurisdic": "Washington Co.", "zipcode": "97003", "type": "BUS", "direction": "W", "position": "FS", "ons": "39", "offs": "78", "total": "117", "monthly_lifts": 22 }, "geometry": { "type": "Point", "coordinates": [ -122.860842712051706, 45.493310084224156 ] } },
{ "type": "Feature", "properties": { "stop_id": 5629, "stop_name": "SW Tualatin Valley Hwy & 185th", "jurisdic": "Washington Co.", "zipcode": "97003", "type": "BUS", "direction": "W", "position": "FS", "ons": "171", "offs": "118", "total": "289", "monthly_lifts": 26 }, "geometry": { "type": "Point", "coordinates": [ -122.867687441333359, 45.494209666554347 ] } },
{ "type": "Feature", "properties": { "stop_id": 5633, "stop_name": "SW Tualatin Valley Hwy & 192nd", "jurisdic": "Washington Co.", "zipcode": "97003", "type": "BUS", "direction": "W", "position": "FS", "ons": "23", "offs": "23", "total": "46", "monthly_lifts": 3 }, "geometry": { "type": "Point", "coordinates": [ -122.875840217513456, 45.494851332237218 ] } },
{ "type": "Feature", "properties": { "stop_id": 5635, "stop_name": "SW Tualatin Valley Hwy & 198th", "jurisdic": "Washington Co.", "zipcode": "97003", "type": "BUS", "direction": "W", "position": "FS", "ons": "75", "offs": "66", "total": "141", "monthly_lifts": 27 }, "geometry": { "type": "Point", "coordinates": [ -122.88177007312423, 45.495518749014792 ] } },
{ "type": "Feature", "properties": { "stop_id": 5586, "stop_name": "SW Tualatin Valley Hwy & 214th", "jurisdic": "Washington Co.", "zipcode": "97003", "type": "BUS", "direction": "W", "position": "NS", "ons": "35", "offs": "33", "total": "68", "monthly_lifts": 4 }, "geometry": { "type": "Point", "coordinates": [ -122.896576634383621, 45.497214753902583 ] } },
{ "type": "Feature", "properties": { "stop_id": 5644, "stop_name": "SE Tualatin Valley Hwy & 75th", "jurisdic": "Hillsboro", "zipcode": "97123", "type": "BUS", "direction": "W", "position": "NS", "ons": "30", "offs": "45", "total": "75", "monthly_lifts": 6 }, "geometry": { "type": "Point", "coordinates": [ -122.903761286992747, 45.497772956492788 ] } },
{ "type": "Feature", "properties": { "stop_id": 5653, "stop_name": "SE Tualatin Valley Hwy & Century", "jurisdic": "Hillsboro", "zipcode": "97123", "type": "BUS", "direction": "W", "position": "NS", "ons": "108", "offs": "87", "total": "195", "monthly_lifts": 42 }, "geometry": { "type": "Point", "coordinates": [ -122.916999947075908, 45.499139025879202 ] } },
{ "type": "Feature", "properties": { "stop_id": 5588, "stop_name": "SE Tualatin Valley Hwy & Sunset Esplnd", "jurisdic": "Hillsboro", "zipcode": "97123", "type": "BUS", "direction": "W", "position": "AT", "ons": "68", "offs": "48", "total": "116", "monthly_lifts": 36 }, "geometry": { "type": "Point", "coordinates": [ -122.958827169921236, 45.505980623062094 ] } },
{ "type": "Feature", "properties": { "stop_id": 5616, "stop_name": "SE Tualatin Valley Hwy & 13th", "jurisdic": "Hillsboro", "zipcode": "97123", "type": "BUS", "direction": "W", "position": "NS", "ons": "29", "offs": "29", "total": "58", "monthly_lifts": 31 }, "geometry": { "type": "Point", "coordinates": [ -122.968709694500347, 45.510032067048385 ] } },
{ "type": "Feature", "properties": { "stop_id": 5615, "stop_name": "SE Tualatin Valley Hwy & 11th", "jurisdic": "Hillsboro", "zipcode": "97123", "type": "BUS", "direction": "N", "position": "FS", "ons": "19", "offs": "37", "total": "56", "monthly_lifts": 10 }, "geometry": { "type": "Point", "coordinates": [ -122.973390016659948, 45.512446809800302 ] } },
{ "type": "Feature", "properties": { "stop_id": 308, "stop_name": "SE Baseline St & 7th", "jurisdic": "Hillsboro", "zipcode": "97123", "type": "BUS", "direction": "W", "position": "NS", "ons": "37", "offs": "69", "total": "106", "monthly_lifts": 29 }, "geometry": { "type": "Point", "coordinates": [ -122.978650093635139, 45.520080690117041 ] } },
{ "type": "Feature", "properties": { "stop_id": 304, "stop_name": "SE Baseline St & 3rd", "jurisdic": "Hillsboro", "zipcode": "97123", "type": "BUS", "direction": "W", "position": "NS", "ons": "74", "offs": "101", "total": "175", "monthly_lifts": 7 }, "geometry": { "type": "Point", "coordinates": [ -122.986034295697877, 45.520142161998535 ] } },
{ "type": "Feature", "properties": { "stop_id": 9850, "stop_name": "SW Baseline & Dennis", "jurisdic": "Hillsboro", "zipcode": "97123", "type": "BUS", "direction": "W", "position": "NS", "ons": "16", "offs": "17", "total": "33", "monthly_lifts": 10 }, "geometry": { "type": "Point", "coordinates": [ -122.995010012307262, 45.520205769701356 ] } },
{ "type": "Feature", "properties": { "stop_id": 10129, "stop_name": "SW Baseline & Main", "jurisdic": "Hillsboro", "zipcode": "97123", "type": "BUS", "direction": "W", "position": "FS", "ons": "9", "offs": "22", "total": "31", "monthly_lifts": 6 }, "geometry": { "type": "Point", "coordinates": [ -123.002998246916178, 45.520036065020371 ] } },
{ "type": "Feature", "properties": { "stop_id": 292, "stop_name": "SW Baseline & NW 334th", "jurisdic": "Washington Co.", "zipcode": "97123", "type": "BUS", "direction": "W", "position": "FS", "ons": "4", "offs": "7", "total": "11", "monthly_lifts": 0 }, "geometry": { "type": "Point", "coordinates": [ -123.021238534698071, 45.5200655293621 ] } },
{ "type": "Feature", "properties": { "stop_id": 298, "stop_name": "Baseline St & Valley View", "jurisdic": "Cornelius", "zipcode": "97113", "type": "BUS", "direction": "W", "position": "AT", "ons": "2", "offs": "10", "total": "12", "monthly_lifts": 1 }, "geometry": { "type": "Point", "coordinates": [ -123.030370606444137, 45.52014882670251 ] } },
{ "type": "Feature", "properties": { "stop_id": 287, "stop_name": "Baseline St & N 31st", "jurisdic": "Cornelius", "zipcode": "97113", "type": "BUS", "direction": "W", "position": "FS", "ons": "2", "offs": "7", "total": "9", "monthly_lifts": 3 }, "geometry": { "type": "Point", "coordinates": [ -123.034090390636308, 45.520153872659307 ] } },
{ "type": "Feature", "properties": { "stop_id": 286, "stop_name": "Baseline St & N 29th\/Hobbs", "jurisdic": "Cornelius", "zipcode": "97113", "type": "BUS", "direction": "W", "position": "FS", "ons": "5", "offs": "18", "total": "23", "monthly_lifts": 0 }, "geometry": { "type": "Point", "coordinates": [ -123.036816408615337, 45.52016078994864 ] } },
{ "type": "Feature", "properties": { "stop_id": 284, "stop_name": "Baseline St & N 26th", "jurisdic": "Cornelius", "zipcode": "97113", "type": "BUS", "direction": "W", "position": "FS", "ons": "8", "offs": "38", "total": "46", "monthly_lifts": 4 }, "geometry": { "type": "Point", "coordinates": [ -123.040746412445841, 45.520167491538317 ] } },
{ "type": "Feature", "properties": { "stop_id": 28, "stop_name": "2200 Block Baseline", "jurisdic": "Cornelius", "zipcode": "97113", "type": "BUS", "direction": "W", "position": "AT", "ons": "51", "offs": "78", "total": "129", "monthly_lifts": 54 }, "geometry": { "type": "Point", "coordinates": [ -123.044484248987999, 45.520283672463449 ] } },
{ "type": "Feature", "properties": { "stop_id": 33, "stop_name": "N Adair & 17th", "jurisdic": "Cornelius", "zipcode": "97113", "type": "BUS", "direction": "W", "position": "FS", "ons": "9", "offs": "18", "total": "27", "monthly_lifts": 3 }, "geometry": { "type": "Point", "coordinates": [ -123.051781387266217, 45.520988275684111 ] } },
{ "type": "Feature", "properties": { "stop_id": 31, "stop_name": "N Adair & 12th", "jurisdic": "Cornelius", "zipcode": "97113", "type": "BUS", "direction": "W", "position": "NS", "ons": "14", "offs": "51", "total": "65", "monthly_lifts": 5 }, "geometry": { "type": "Point", "coordinates": [ -123.056836446216749, 45.520969645427705 ] } },
{ "type": "Feature", "properties": { "stop_id": 30, "stop_name": "N Adair & 10th", "jurisdic": "Cornelius", "zipcode": "97113", "type": "BUS", "direction": "W", "position": "NS", "ons": "30", "offs": "71", "total": "101", "monthly_lifts": 11 }, "geometry": { "type": "Point", "coordinates": [ -123.059301103908325, 45.520983094739137 ] } },
{ "type": "Feature", "properties": { "stop_id": 27, "stop_name": "N Adair & 7th", "jurisdic": "Cornelius", "zipcode": "97113", "type": "BUS", "direction": "W", "position": "FS", "ons": "4", "offs": "14", "total": "18", "monthly_lifts": 2 }, "geometry": { "type": "Point", "coordinates": [ -123.063195556175089, 45.520986191202667 ] } },
{ "type": "Feature", "properties": { "stop_id": 35, "stop_name": "N Adair & 4th", "jurisdic": "Cornelius", "zipcode": "97113", "type": "BUS", "direction": "W", "position": "FS", "ons": "55", "offs": "141", "total": "196", "monthly_lifts": 68 }, "geometry": { "type": "Point", "coordinates": [ -123.067234212136157, 45.521025746248554 ] } },
{ "type": "Feature", "properties": { "stop_id": 4322, "stop_name": "N Adair & Yew", "jurisdic": "Forest Grove", "zipcode": "97116", "type": "BUS", "direction": "W", "position": "NS", "ons": "23", "offs": "93", "total": "116", "monthly_lifts": 7 }, "geometry": { "type": "Point", "coordinates": [ -123.072828469965032, 45.520829805166372 ] } },
{ "type": "Feature", "properties": { "stop_id": 4279, "stop_name": "Pacific Ave & Mountain View Ln", "jurisdic": "Forest Grove", "zipcode": "97116", "type": "BUS", "direction": "W", "position": "NS", "ons": "7", "offs": "34", "total": "41", "monthly_lifts": 7 }, "geometry": { "type": "Point", "coordinates": [ -123.075673200899431, 45.520364849740439 ] } },
{ "type": "Feature", "properties": { "stop_id": 4307, "stop_name": "Pacific Ave & Quince", "jurisdic": "Forest Grove", "zipcode": "97116", "type": "BUS", "direction": "W", "position": "FS", "ons": "3", "offs": "30", "total": "33", "monthly_lifts": 13 }, "geometry": { "type": "Point", "coordinates": [ -123.085192513557502, 45.520382017422342 ] } },
{ "type": "Feature", "properties": { "stop_id": 4299, "stop_name": "Pacific Ave & Oak", "jurisdic": "Forest Grove", "zipcode": "97116", "type": "BUS", "direction": "W", "position": "FS", "ons": "13", "offs": "54", "total": "67", "monthly_lifts": 18 }, "geometry": { "type": "Point", "coordinates": [ -123.088502399801527, 45.520242198176746 ] } },
{ "type": "Feature", "properties": { "stop_id": 4309, "stop_name": "2900 Block Pacific Ave", "jurisdic": "Forest Grove", "zipcode": "97116", "type": "BUS", "direction": "W", "position": "AT", "ons": "37", "offs": "126", "total": "163", "monthly_lifts": 43 }, "geometry": { "type": "Point", "coordinates": [ -123.095008650038977, 45.520247587394181 ] } },
{ "type": "Feature", "properties": { "stop_id": 4291, "stop_name": "Pacific Ave & Hawthorne", "jurisdic": "Forest Grove", "zipcode": "97116", "type": "BUS", "direction": "W", "position": "NS", "ons": "4", "offs": "53", "total": "57", "monthly_lifts": 16 }, "geometry": { "type": "Point", "coordinates": [ -123.09907456444536, 45.519712831556895 ] } },
{ "type": "Feature", "properties": { "stop_id": 4278, "stop_name": "Pacific Ave & College Way", "jurisdic": "Forest Grove", "zipcode": "97116", "type": "BUS", "direction": "W", "position": "NS", "ons": "1", "offs": "105", "total": "106", "monthly_lifts": 17 }, "geometry": { "type": "Point", "coordinates": [ -123.110899660784838, 45.519720566171017 ] } },
{ "type": "Feature", "properties": { "stop_id": 146, "stop_name": "19th & B St", "jurisdic": "Forest Grove", "zipcode": "97116", "type": "BUS", "direction": "E", "position": "FS", "ons": "271", "offs": "174", "total": "445", "monthly_lifts": 54 }, "geometry": { "type": "Point", "coordinates": [ -123.115447956493057, 45.518533652948243 ] } },
{ "type": "Feature", "properties": { "stop_id": 7041, "stop_name": "19th & Cedar", "jurisdic": "Forest Grove", "zipcode": "97116", "type": "BUS", "direction": "E", "position": "NS", "ons": "66", "offs": "3", "total": "69", "monthly_lifts": 4 }, "geometry": { "type": "Point", "coordinates": [ -123.106742608050098, 45.518284612817112 ] } },
{ "type": "Feature", "properties": { "stop_id": 7044, "stop_name": "19th & Hawthorne", "jurisdic": "Forest Grove", "zipcode": "97116", "type": "BUS", "direction": "E", "position": "NS", "ons": "49", "offs": "5", "total": "54", "monthly_lifts": 26 }, "geometry": { "type": "Point", "coordinates": [ -123.099452157878133, 45.518267095076958 ] } },
{ "type": "Feature", "properties": { "stop_id": 4294, "stop_name": "Pacific Ave & Maple", "jurisdic": "Forest Grove", "zipcode": "97116", "type": "BUS", "direction": "E", "position": "NS", "ons": "67", "offs": "12", "total": "79", "monthly_lifts": 20 }, "geometry": { "type": "Point", "coordinates": [ -123.091444935445978, 45.519980974186822 ] } },
{ "type": "Feature", "properties": { "stop_id": 4306, "stop_name": "Pacific Ave & Quince", "jurisdic": "Forest Grove", "zipcode": "97116", "type": "BUS", "direction": "E", "position": "FS", "ons": "36", "offs": "8", "total": "44", "monthly_lifts": 7 }, "geometry": { "type": "Point", "coordinates": [ -123.082014219290755, 45.520088175995838 ] } },
{ "type": "Feature", "properties": { "stop_id": 4272, "stop_name": "3900 Block Pacific Ave", "jurisdic": "Forest Grove", "zipcode": "97116", "type": "BUS", "direction": "E", "position": "AT", "ons": "30", "offs": "8", "total": "38", "monthly_lifts": 12 }, "geometry": { "type": "Point", "coordinates": [ -123.078650689653315, 45.520070429157748 ] } },
{ "type": "Feature", "properties": { "stop_id": 4323, "stop_name": "Pacific Ave & Yew", "jurisdic": "Forest Grove", "zipcode": "97116", "type": "BUS", "direction": "E", "position": "OP", "ons": "82", "offs": "20", "total": "102", "monthly_lifts": 5 }, "geometry": { "type": "Point", "coordinates": [ -123.072980237983231, 45.520068202055953 ] } },
{ "type": "Feature", "properties": { "stop_id": 303, "stop_name": "Baseline St & S 4th", "jurisdic": "Cornelius", "zipcode": "97113", "type": "BUS", "direction": "E", "position": "NS", "ons": "114", "offs": "35", "total": "149", "monthly_lifts": 43 }, "geometry": { "type": "Point", "coordinates": [ -123.066941736446111, 45.519990798649857 ] } },
{ "type": "Feature", "properties": { "stop_id": 258, "stop_name": "700 Block Baseline", "jurisdic": "Cornelius", "zipcode": "97113", "type": "BUS", "direction": "E", "position": "AT", "ons": "8", "offs": "3", "total": "11", "monthly_lifts": 2 }, "geometry": { "type": "Point", "coordinates": [ -123.063330610070707, 45.520027344012306 ] } },
{ "type": "Feature", "properties": { "stop_id": 285, "stop_name": "Baseline St & N 29th\/Hobbs", "jurisdic": "Cornelius", "zipcode": "97113", "type": "BUS", "direction": "E", "position": "OP", "ons": "13", "offs": "3", "total": "16", "monthly_lifts": 0 }, "geometry": { "type": "Point", "coordinates": [ -123.03541400903292, 45.519885271305917 ] } },
{ "type": "Feature", "properties": { "stop_id": 300, "stop_name": "SW Baseline & 345th", "jurisdic": "Cornelius", "zipcode": "97113", "type": "BUS", "direction": "E", "position": "NS", "ons": "10", "offs": "5", "total": "15", "monthly_lifts": 4 }, "geometry": { "type": "Point", "coordinates": [ -123.032736449652859, 45.519868821837427 ] } },
{ "type": "Feature", "properties": { "stop_id": 291, "stop_name": "SW Baseline & 331st", "jurisdic": "Washington Co.", "zipcode": "97123", "type": "BUS", "direction": "E", "position": "FS", "ons": "2", "offs": "2", "total": "4", "monthly_lifts": 0 }, "geometry": { "type": "Point", "coordinates": [ -123.017376392359239, 45.519861870459351 ] } },
{ "type": "Feature", "properties": { "stop_id": 6500, "stop_name": "SE 10th & Walnut", "jurisdic": "Hillsboro", "zipcode": "97123", "type": "BUS", "direction": "S", "position": "NS", "ons": "137", "offs": "74", "total": "211", "monthly_lifts": 23 }, "geometry": { "type": "Point", "coordinates": [ -122.974076322911358, 45.517625216468005 ] } },
{ "type": "Feature", "properties": { "stop_id": 6496, "stop_name": "SE 10th & Maple", "jurisdic": "Hillsboro", "zipcode": "97123", "type": "BUS", "direction": "S", "position": "FS", "ons": "82", "offs": "69", "total": "151", "monthly_lifts": 29 }, "geometry": { "type": "Point", "coordinates": [ -122.974196210767587, 45.514505585939986 ] } },
{ "type": "Feature", "properties": { "stop_id": 5602, "stop_name": "SE Tualatin Valley Hwy & River Rd", "jurisdic": "Hillsboro", "zipcode": "97123", "type": "BUS", "direction": "E", "position": "FS", "ons": "26", "offs": "23", "total": "49", "monthly_lifts": 16 }, "geometry": { "type": "Point", "coordinates": [ -122.968500942713817, 45.509675972535867 ] } },
{ "type": "Feature", "properties": { "stop_id": 5611, "stop_name": "SE Tualatin Valley Hwy & Sunset Esplnd", "jurisdic": "Hillsboro", "zipcode": "97123", "type": "BUS", "direction": "E", "position": "OP", "ons": "60", "offs": "78", "total": "138", "monthly_lifts": 59 }, "geometry": { "type": "Point", "coordinates": [ -122.958256059152774, 45.505477859900218 ] } },
{ "type": "Feature", "properties": { "stop_id": 10157, "stop_name": "SE Tualatin Valley Hwy & 44th", "jurisdic": "Hillsboro", "zipcode": "97123", "type": "BUS", "direction": "E", "position": "OP", "ons": "18", "offs": "32", "total": "50", "monthly_lifts": 94 }, "geometry": { "type": "Point", "coordinates": [ -122.937943767308965, 45.501056405563517 ] } },
{ "type": "Feature", "properties": { "stop_id": 5614, "stop_name": "SE Tualatin Valley Hwy & Brookwood", "jurisdic": "Hillsboro", "zipcode": "97123", "type": "BUS", "direction": "E", "position": "FS", "ons": "68", "offs": "52", "total": "120", "monthly_lifts": 14 }, "geometry": { "type": "Point", "coordinates": [ -122.929590435143467, 45.500181622775152 ] } },
{ "type": "Feature", "properties": { "stop_id": 5655, "stop_name": "SE Tualatin Valley Hwy & Imlay", "jurisdic": "Hillsboro", "zipcode": "97123", "type": "BUS", "direction": "E", "position": "OP", "ons": "4", "offs": "7", "total": "11", "monthly_lifts": 0 }, "geometry": { "type": "Point", "coordinates": [ -122.92294598716505, 45.49951362573519 ] } },
{ "type": "Feature", "properties": { "stop_id": 5642, "stop_name": "SW Tualatin Valley Hwy & 214th", "jurisdic": "Washington Co.", "zipcode": "97078", "type": "BUS", "direction": "E", "position": "OP", "ons": "14", "offs": "18", "total": "32", "monthly_lifts": 1 }, "geometry": { "type": "Point", "coordinates": [ -122.896713849023271, 45.496982239819673 ] } },
{ "type": "Feature", "properties": { "stop_id": 5590, "stop_name": "SW Tualatin Valley Hwy & Market Centre", "jurisdic": "Washington Co.", "zipcode": "97078", "type": "BUS", "direction": "E", "position": "OP", "ons": "48", "offs": "36", "total": "84", "monthly_lifts": 6 }, "geometry": { "type": "Point", "coordinates": [ -122.886370762376089, 45.495715985565276 ] } },
{ "type": "Feature", "properties": { "stop_id": 5593, "stop_name": "18882-19040 SW Tualatin Valley Hwy", "jurisdic": "Washington Co.", "zipcode": "97078", "type": "BUS", "direction": "E", "position": "AT", "ons": "11", "offs": "11", "total": "22", "monthly_lifts": 0 }, "geometry": { "type": "Point", "coordinates": [ -122.873086761679801, 45.494353082459568 ] } },
{ "type": "Feature", "properties": { "stop_id": 5628, "stop_name": "SW Tualatin Valley Hwy & 185th", "jurisdic": "Washington Co.", "zipcode": "97078", "type": "BUS", "direction": "E", "position": "FS", "ons": "111", "offs": "168", "total": "279", "monthly_lifts": 26 }, "geometry": { "type": "Point", "coordinates": [ -122.866711724584619, 45.493928518271922 ] } },
{ "type": "Feature", "properties": { "stop_id": 5623, "stop_name": "SW Tualatin Valley Hwy & 174th", "jurisdic": "Washington Co.", "zipcode": "97078", "type": "BUS", "direction": "E", "position": "OP", "ons": "21", "offs": "13", "total": "34", "monthly_lifts": 0 }, "geometry": { "type": "Point", "coordinates": [ -122.856669325050532, 45.492653553630902 ] } },
{ "type": "Feature", "properties": { "stop_id": 5618, "stop_name": "SW Tualatin Valley Hwy & 160th", "jurisdic": "Beaverton", "zipcode": "97078", "type": "BUS", "direction": "E", "position": "FS", "ons": "60", "offs": "36", "total": "96", "monthly_lifts": 2 }, "geometry": { "type": "Point", "coordinates": [ -122.841229800598171, 45.49159238752717 ] } },
{ "type": "Feature", "properties": { "stop_id": 5600, "stop_name": "SW Tualatin Valley Hwy & Murray", "jurisdic": "Beaverton", "zipcode": "97078", "type": "BUS", "direction": "E", "position": "NS", "ons": "24", "offs": "94", "total": "118", "monthly_lifts": 10 }, "geometry": { "type": "Point", "coordinates": [ -122.82643085470778, 45.4894790551241 ] } },
{ "type": "Feature", "properties": { "stop_id": 5597, "stop_name": "SW Tualatin Valley Hwy & Hocken", "jurisdic": "Beaverton", "zipcode": "97005", "type": "BUS", "direction": "E", "position": "NS", "ons": "20", "offs": "42", "total": "62", "monthly_lifts": 8 }, "geometry": { "type": "Point", "coordinates": [ -122.814993279221554, 45.488306637946955 ] } },
{ "type": "Feature", "properties": { "stop_id": 8270, "stop_name": "SW Canyon & Watson", "jurisdic": "Beaverton", "zipcode": "97005", "type": "BUS", "direction": "E", "position": "NS", "ons": "2", "offs": "92", "total": "94", "monthly_lifts": 8 }, "geometry": { "type": "Point", "coordinates": [ -122.806409247592569, 45.488257771746092 ] } },
{ "type": "Feature", "properties": { "stop_id": 9984, "stop_name": "Beaverton Transit Center", "jurisdic": "Beaverton", "zipcode": "97005", "type": "BUS", "direction": "N", "position": "AT", "ons": "980", "offs": "802", "total": "1,782", "monthly_lifts": 201 }, "geometry": { "type": "Point", "coordinates": [ -122.801047162297607, 45.491326699523242 ] } },
{ "type": "Feature", "properties": { "stop_id": 3052, "stop_name": "SW Jefferson & 16th", "jurisdic": "Portland", "zipcode": "97201", "type": "BUS", "direction": "W", "position": "NS", "ons": "55", "offs": "57", "total": "112", "monthly_lifts": 6 }, "geometry": { "type": "Point", "coordinates": [ -122.690110971037853, 45.517636362303463 ] } },
{ "type": "Feature", "properties": { "stop_id": 3054, "stop_name": "SW Jefferson & 20th", "jurisdic": "Portland", "zipcode": "97201", "type": "BUS", "direction": "W", "position": "NS", "ons": "35", "offs": "23", "total": "58", "monthly_lifts": 5 }, "geometry": { "type": "Point", "coordinates": [ -122.69407776719639, 45.51841509437746 ] } },
{ "type": "Feature", "properties": { "stop_id": 885, "stop_name": "SW Canyon & Benz Park", "jurisdic": "Beaverton", "zipcode": "97225", "type": "BUS", "direction": "W", "position": "NS", "ons": "1", "offs": "3", "total": "4", "monthly_lifts": 0 }, "geometry": { "type": "Point", "coordinates": [ -122.752357586803541, 45.501680786432054 ] } },
{ "type": "Feature", "properties": { "stop_id": 1220, "stop_name": "Country Club & Boones Ferry Rd", "jurisdic": "Lake Oswego", "zipcode": "97035", "type": "BUS", "direction": "W", "position": "NS", "ons": "1", "offs": "2", "total": "3", "monthly_lifts": 0 }, "geometry": { "type": "Point", "coordinates": [ -122.707606521510513, 45.424530369668382 ] } },
{ "type": "Feature", "properties": { "stop_id": 3138, "stop_name": "Kerr & The Grotto", "jurisdic": "Lake Oswego", "zipcode": "97035", "type": "BUS", "direction": "N", "position": "OP", "ons": "8", "offs": "6", "total": "14", "monthly_lifts": 0 }, "geometry": { "type": "Point", "coordinates": [ -122.707138162971219, 45.42628674606955 ] } },
{ "type": "Feature", "properties": { "stop_id": 3135, "stop_name": "Kerr & Tanglewood", "jurisdic": "Lake Oswego", "zipcode": "97035", "type": "BUS", "direction": "W", "position": "FS", "ons": "1", "offs": "4", "total": "5", "monthly_lifts": 0 }, "geometry": { "type": "Point", "coordinates": [ -122.712317501097289, 45.428364300725207 ] } },
{ "type": "Feature", "properties": { "stop_id": 3129, "stop_name": "Kerr & Independence", "jurisdic": "Lake Oswego", "zipcode": "97035", "type": "BUS", "direction": "N", "position": "FS", "ons": "0", "offs": "1", "total": "1", "monthly_lifts": 0 }, "geometry": { "type": "Point", "coordinates": [ -122.716103758295134, 45.428803204672391 ] } },
{ "type": "Feature", "properties": { "stop_id": 3132, "stop_name": "Kerr & Jefferson Pkwy", "jurisdic": "Lake Oswego", "zipcode": "97035", "type": "BUS", "direction": "N", "position": "FS", "ons": "7", "offs": "6", "total": "13", "monthly_lifts": 1 }, "geometry": { "type": "Point", "coordinates": [ -122.718247580020247, 45.431171166098814 ] } },
{ "type": "Feature", "properties": { "stop_id": 3126, "stop_name": "50 Block Kerr Parkway", "jurisdic": "Lake Oswego", "zipcode": "97035", "type": "BUS", "direction": "N", "position": "OP", "ons": "9", "offs": "3", "total": "12", "monthly_lifts": 0 }, "geometry": { "type": "Point", "coordinates": [ -122.719357338249196, 45.434206538689722 ] } },
{ "type": "Feature", "properties": { "stop_id": 3392, "stop_name": "SW Lesser & 60th", "jurisdic": "Portland", "zipcode": "97219", "type": "BUS", "direction": "S", "position": "OP", "ons": "3", "offs": "2", "total": "5", "monthly_lifts": 1 }, "geometry": { "type": "Point", "coordinates": [ -122.73886980887643, 45.44033835545234 ] } },
{ "type": "Feature", "properties": { "stop_id": 3389, "stop_name": "SW Lesser & Haines", "jurisdic": "Portland", "zipcode": "97219", "type": "BUS", "direction": "S", "position": "NS", "ons": "4", "offs": "2", "total": "6", "monthly_lifts": 0 }, "geometry": { "type": "Point", "coordinates": [ -122.741191637657749, 45.436982460293414 ] } },
{ "type": "Feature", "properties": { "stop_id": 7848, "stop_name": "SW 68th & Franklin", "jurisdic": "Tigard", "zipcode": "97223", "type": "BUS", "direction": "S", "position": "NS", "ons": "8", "offs": "4", "total": "12", "monthly_lifts": 3 }, "geometry": { "type": "Point", "coordinates": [ -122.74691108095908, 45.430407801374542 ] } },
{ "type": "Feature", "properties": { "stop_id": 2810, "stop_name": "7500 Block SW Hunziker", "jurisdic": "Tigard", "zipcode": "97223", "type": "BUS", "direction": "W", "position": "AT", "ons": "7", "offs": "3", "total": "10", "monthly_lifts": 0 }, "geometry": { "type": "Point", "coordinates": [ -122.755007824621188, 45.427030944482851 ] } },
{ "type": "Feature", "properties": { "stop_id": 2816, "stop_name": "SW Hunziker & Knoll", "jurisdic": "Tigard", "zipcode": "97223", "type": "BUS", "direction": "W", "position": "NS", "ons": "2", "offs": "1", "total": "3", "monthly_lifts": 1 }, "geometry": { "type": "Point", "coordinates": [ -122.763477714430195, 45.429791627844587 ] } },
{ "type": "Feature", "properties": { "stop_id": 2232, "stop_name": "SW Greenburg & Center", "jurisdic": "Tigard", "zipcode": "97223", "type": "BUS", "direction": "N", "position": "FS", "ons": "67", "offs": "29", "total": "96", "monthly_lifts": 5 }, "geometry": { "type": "Point", "coordinates": [ -122.768136235385356, 45.4339622756276 ] } },
{ "type": "Feature", "properties": { "stop_id": 2239, "stop_name": "SW Greenburg & 92nd", "jurisdic": "Tigard", "zipcode": "97223", "type": "BUS", "direction": "W", "position": "FS", "ons": "9", "offs": "9", "total": "18", "monthly_lifts": 6 }, "geometry": { "type": "Point", "coordinates": [ -122.772422165657716, 45.43637722253677 ] } },
{ "type": "Feature", "properties": { "stop_id": 2245, "stop_name": "SW Greenburg & 98th", "jurisdic": "Tigard", "zipcode": "97223", "type": "BUS", "direction": "W", "position": "OP", "ons": "14", "offs": "19", "total": "33", "monthly_lifts": 1 }, "geometry": { "type": "Point", "coordinates": [ -122.777956239891509, 45.43764130262656 ] } },
{ "type": "Feature", "properties": { "stop_id": 2234, "stop_name": "SW Greenburg & North Dakota", "jurisdic": "Tigard", "zipcode": "97223", "type": "BUS", "direction": "N", "position": "FS", "ons": "28", "offs": "27", "total": "55", "monthly_lifts": 2 }, "geometry": { "type": "Point", "coordinates": [ -122.779331477690562, 45.438968889035401 ] } },
{ "type": "Feature", "properties": { "stop_id": 2295, "stop_name": "SW Hall & Scholls Ferry", "jurisdic": "Beaverton", "zipcode": "97223", "type": "BUS", "direction": "W", "position": "NS", "ons": "81", "offs": "23", "total": "104", "monthly_lifts": 9 }, "geometry": { "type": "Point", "coordinates": [ -122.782139756684145, 45.456841660478673 ] } },
{ "type": "Feature", "properties": { "stop_id": 2275, "stop_name": "SW Hall & Creekside", "jurisdic": "Beaverton", "zipcode": "97008", "type": "BUS", "direction": "W", "position": "OP", "ons": "36", "offs": "19", "total": "55", "monthly_lifts": 2 }, "geometry": { "type": "Point", "coordinates": [ -122.793525400375643, 45.460664511299761 ] } },
{ "type": "Feature", "properties": { "stop_id": 2284, "stop_name": "SW Hall & Greenway", "jurisdic": "Beaverton", "zipcode": "97008", "type": "BUS", "direction": "W", "position": "FS", "ons": "71", "offs": "28", "total": "99", "monthly_lifts": 6 }, "geometry": { "type": "Point", "coordinates": [ -122.797117410636531, 45.461666889234728 ] } },
{ "type": "Feature", "properties": { "stop_id": 2277, "stop_name": "SW Hall & Cresmoor", "jurisdic": "Beaverton", "zipcode": "97008", "type": "BUS", "direction": "W", "position": "NS", "ons": "6", "offs": "3", "total": "9", "monthly_lifts": 2 }, "geometry": { "type": "Point", "coordinates": [ -122.803089084140836, 45.464211515397189 ] } },
{ "type": "Feature", "properties": { "stop_id": 2278, "stop_name": "SW Hall & Denney", "jurisdic": "Beaverton", "zipcode": "97008", "type": "BUS", "direction": "N", "position": "FS", "ons": "29", "offs": "14", "total": "43", "monthly_lifts": 27 }, "geometry": { "type": "Point", "coordinates": [ -122.803927727779509, 45.469679371835198 ] } },
{ "type": "Feature", "properties": { "stop_id": 2261, "stop_name": "6200 Block SW Hall", "jurisdic": "Beaverton", "zipcode": "97008", "type": "BUS", "direction": "N", "position": "AT", "ons": "19", "offs": "11", "total": "30", "monthly_lifts": 0 }, "geometry": { "type": "Point", "coordinates": [ -122.805322910802417, 45.474952721348195 ] } },
{ "type": "Feature", "properties": { "stop_id": 2260, "stop_name": "5500 Block SW Hall", "jurisdic": "Beaverton", "zipcode": "97005", "type": "BUS", "direction": "N", "position": "AT", "ons": "19", "offs": "13", "total": "32", "monthly_lifts": 9 }, "geometry": { "type": "Point", "coordinates": [ -122.805445530785548, 45.479777163701058 ] } },
{ "type": "Feature", "properties": { "stop_id": 2305, "stop_name": "SW Hall & 5th", "jurisdic": "Beaverton", "zipcode": "97005", "type": "BUS", "direction": "N", "position": "NS", "ons": "31", "offs": "47", "total": "78", "monthly_lifts": 25 }, "geometry": { "type": "Point", "coordinates": [ -122.804675582959803, 45.483255244625767 ] } },
{ "type": "Feature", "properties": { "stop_id": 2302, "stop_name": "SW Hall & 2nd", "jurisdic": "Beaverton", "zipcode": "97005", "type": "BUS", "direction": "N", "position": "FS", "ons": "17", "offs": "49", "total": "66", "monthly_lifts": 15 }, "geometry": { "type": "Point", "coordinates": [ -122.804213249373561, 45.485682530713014 ] } },
{ "type": "Feature", "properties": { "stop_id": 9982, "stop_name": "Beaverton Transit Center", "jurisdic": "Beaverton", "zipcode": "97005", "type": "BUS", "direction": "S", "position": "AT", "ons": "586", "offs": "38", "total": "624", "monthly_lifts": 110 }, "geometry": { "type": "Point", "coordinates": [ -122.801609128060761, 45.491029738882382 ] } },
{ "type": "Feature", "properties": { "stop_id": 3612, "stop_name": "SW Macadam & Hamilton Ct", "jurisdic": "Portland", "zipcode": "97239", "type": "BUS", "direction": "S", "position": "OP", "ons": "1", "offs": "31", "total": "32", "monthly_lifts": 0 }, "geometry": { "type": "Point", "coordinates": [ -122.673829627984034, 45.489959475385959 ] } },
{ "type": "Feature", "properties": { "stop_id": 3620, "stop_name": "SW Macadam & Nevada", "jurisdic": "Portland", "zipcode": "97219", "type": "BUS", "direction": "S", "position": "NS", "ons": "11", "offs": "53", "total": "64", "monthly_lifts": 1 }, "geometry": { "type": "Point", "coordinates": [ -122.671599261773324, 45.473039642132854 ] } },
{ "type": "Feature", "properties": { "stop_id": 4909, "stop_name": "SW Riverside & Riverwood", "jurisdic": "Multnomah Co.", "zipcode": "97219", "type": "BUS", "direction": "S", "position": "OP", "ons": "0", "offs": "0", "total": "0", "monthly_lifts": 0 }, "geometry": { "type": "Point", "coordinates": [ -122.657359531317155, 45.447148855154673 ] } },
{ "type": "Feature", "properties": { "stop_id": 4900, "stop_name": "SW Riverside & Military", "jurisdic": "Multnomah Co.", "zipcode": "97219", "type": "BUS", "direction": "S", "position": "NS", "ons": "1", "offs": "3", "total": "4", "monthly_lifts": 0 }, "geometry": { "type": "Point", "coordinates": [ -122.65503902195087, 45.441689306729529 ] } },
{ "type": "Feature", "properties": { "stop_id": 4898, "stop_name": "SW Riverside & Breyman", "jurisdic": "Multnomah Co.", "zipcode": "97219", "type": "BUS", "direction": "S", "position": "NS", "ons": "0", "offs": "2", "total": "2", "monthly_lifts": 0 }, "geometry": { "type": "Point", "coordinates": [ -122.653519172408664, 45.435883788563274 ] } },
{ "type": "Feature", "properties": { "stop_id": 5506, "stop_name": "N State & B Ave", "jurisdic": "Lake Oswego", "zipcode": "97034", "type": "BUS", "direction": "S", "position": "NS", "ons": "1", "offs": "26", "total": "27", "monthly_lifts": 1 }, "geometry": { "type": "Point", "coordinates": [ -122.662682551073416, 45.420769882540931 ] } },
{ "type": "Feature", "properties": { "stop_id": 147, "stop_name": "B Ave & Second St", "jurisdic": "Lake Oswego", "zipcode": "97034", "type": "BUS", "direction": "W", "position": "NS", "ons": "16", "offs": "23", "total": "39", "monthly_lifts": 1 }, "geometry": { "type": "Point", "coordinates": [ -122.665113126422966, 45.420844502521497 ] } },
{ "type": "Feature", "properties": { "stop_id": 5510, "stop_name": "N State & Foothills", "jurisdic": "Lake Oswego", "zipcode": "97034", "type": "BUS", "direction": "S", "position": "OP", "ons": "7", "offs": "21", "total": "28", "monthly_lifts": 0 }, "geometry": { "type": "Point", "coordinates": [ -122.663422605905339, 45.417550345100992 ] } },
{ "type": "Feature", "properties": { "stop_id": 5511, "stop_name": "S State & Middlecrest", "jurisdic": "Lake Oswego", "zipcode": "97034", "type": "BUS", "direction": "S", "position": "NS", "ons": "6", "offs": "27", "total": "33", "monthly_lifts": 3 }, "geometry": { "type": "Point", "coordinates": [ -122.664410284456892, 45.413168993112521 ] } },
{ "type": "Feature", "properties": { "stop_id": 3816, "stop_name": "McVey & Lakefront", "jurisdic": "Lake Oswego", "zipcode": "97034", "type": "BUS", "direction": "W", "position": "NS", "ons": "0", "offs": "0", "total": "0", "monthly_lifts": 0 }, "geometry": { "type": "Point", "coordinates": [ -122.668985137792447, 45.409762319783397 ] } },
{ "type": "Feature", "properties": { "stop_id": 3813, "stop_name": "McVey & Cornell", "jurisdic": "Lake Oswego", "zipcode": "97034", "type": "BUS", "direction": "W", "position": "NS", "ons": "0", "offs": "2", "total": "2", "monthly_lifts": 0 }, "geometry": { "type": "Point", "coordinates": [ -122.672065739980937, 45.408805159760256 ] } },
{ "type": "Feature", "properties": { "stop_id": 5309, "stop_name": "South Shore & Patton", "jurisdic": "Lake Oswego", "zipcode": "97034", "type": "BUS", "direction": "W", "position": "NS", "ons": "1", "offs": "5", "total": "6", "monthly_lifts": 0 }, "geometry": { "type": "Point", "coordinates": [ -122.678077350427699, 45.406896027110527 ] } },
{ "type": "Feature", "properties": { "stop_id": 5301, "stop_name": "South Shore & Greentree", "jurisdic": "Lake Oswego", "zipcode": "97034", "type": "BUS", "direction": "W", "position": "OP", "ons": "1", "offs": "3", "total": "4", "monthly_lifts": 0 }, "geometry": { "type": "Point", "coordinates": [ -122.68344875671535, 45.40689642276552 ] } },
{ "type": "Feature", "properties": { "stop_id": 5298, "stop_name": "South Shore & Edgecliff", "jurisdic": "Lake Oswego", "zipcode": "97034", "type": "BUS", "direction": "W", "position": "FS", "ons": "0", "offs": "0", "total": "0", "monthly_lifts": 0 }, "geometry": { "type": "Point", "coordinates": [ -122.692759136381497, 45.407547253518409 ] } },
{ "type": "Feature", "properties": { "stop_id": 5285, "stop_name": "1700 Block South Shore", "jurisdic": "Lake Oswego", "zipcode": "97034", "type": "BUS", "direction": "W", "position": "AT", "ons": "0", "offs": "0", "total": "0", "monthly_lifts": 0 }, "geometry": { "type": "Point", "coordinates": [ -122.694676871356307, 45.405911473000621 ] } },
{ "type": "Feature", "properties": { "stop_id": 5295, "stop_name": "South Shore & Cedar Ct", "jurisdic": "Lake Oswego", "zipcode": "97034", "type": "BUS", "direction": "W", "position": "FS", "ons": "0", "offs": "2", "total": "2", "monthly_lifts": 0 }, "geometry": { "type": "Point", "coordinates": [ -122.696073137555828, 45.404939650816893 ] } },
{ "type": "Feature", "properties": { "stop_id": 5296, "stop_name": "South Shore & Fernwood", "jurisdic": "Lake Oswego", "zipcode": "97034", "type": "BUS", "direction": "W", "position": "OP", "ons": "0", "offs": "1", "total": "1", "monthly_lifts": 0 }, "geometry": { "type": "Point", "coordinates": [ -122.698713052290941, 45.404986236766455 ] } },
{ "type": "Feature", "properties": { "stop_id": 5288, "stop_name": "2500 Block South Shore", "jurisdic": "Lake Oswego", "zipcode": "97034", "type": "BUS", "direction": "W", "position": "AT", "ons": "0", "offs": "1", "total": "1", "monthly_lifts": 0 }, "geometry": { "type": "Point", "coordinates": [ -122.703141776559605, 45.404765322793267 ] } },
{ "type": "Feature", "properties": { "stop_id": 5300, "stop_name": "South Shore & Greenbrier", "jurisdic": "Lake Oswego", "zipcode": "97034", "type": "BUS", "direction": "W", "position": "FS", "ons": "0", "offs": "0", "total": "0", "monthly_lifts": 0 }, "geometry": { "type": "Point", "coordinates": [ -122.708270850057289, 45.403007456378681 ] } },
{ "type": "Feature", "properties": { "stop_id": 5297, "stop_name": "South Shore & Cedar Rd", "jurisdic": "Lake Oswego", "zipcode": "97034", "type": "BUS", "direction": "W", "position": "OP", "ons": "0", "offs": "1", "total": "1", "monthly_lifts": 20 }, "geometry": { "type": "Point", "coordinates": [ -122.710641153942959, 45.402373245118049 ] } },
{ "type": "Feature", "properties": { "stop_id": 3031, "stop_name": "Jean Rd & Bryant", "jurisdic": "Lake Oswego", "zipcode": "97035", "type": "BUS", "direction": "W", "position": "FS", "ons": "0", "offs": "3", "total": "3", "monthly_lifts": 0 }, "geometry": { "type": "Point", "coordinates": [ -122.723615761354807, 45.397051383043937 ] } },
{ "type": "Feature", "properties": { "stop_id": 3036, "stop_name": "Jean Rd & Schalit", "jurisdic": "Lake Oswego", "zipcode": "97035", "type": "BUS", "direction": "W", "position": "FS", "ons": "0", "offs": "1", "total": "1", "monthly_lifts": 0 }, "geometry": { "type": "Point", "coordinates": [ -122.72788123429072, 45.397088288956127 ] } },
{ "type": "Feature", "properties": { "stop_id": 3033, "stop_name": "SW Jean Rd & Tualata", "jurisdic": "Lake Oswego", "zipcode": "97035", "type": "BUS", "direction": "W", "position": "OP", "ons": "0", "offs": "1", "total": "1", "monthly_lifts": 0 }, "geometry": { "type": "Point", "coordinates": [ -122.73060836850145, 45.397117393648792 ] } },
{ "type": "Feature", "properties": { "stop_id": 7879, "stop_name": "Tualatin Park & Ride", "jurisdic": "Tualatin", "zipcode": "97224", "type": "BUS", "direction": "N", "position": "AT", "ons": "255", "offs": "76", "total": "331", "monthly_lifts": 20 }, "geometry": { "type": "Point", "coordinates": [ -122.748820768416294, 45.394696549867191 ] } },
{ "type": "Feature", "properties": { "stop_id": 3030, "stop_name": "Jean Rd & Bryant", "jurisdic": "Lake Oswego", "zipcode": "97035", "type": "BUS", "direction": "E", "position": "NS", "ons": "2", "offs": "0", "total": "2", "monthly_lifts": 0 }, "geometry": { "type": "Point", "coordinates": [ -122.723886813465455, 45.396913793648068 ] } },
{ "type": "Feature", "properties": { "stop_id": 10175, "stop_name": "South Shore & Cedar Rd", "jurisdic": "Lake Oswego", "zipcode": "97034", "type": "BUS", "direction": "E", "position": "FS", "ons": "2", "offs": "1", "total": "3", "monthly_lifts": 19 }, "geometry": { "type": "Point", "coordinates": [ -122.710596258646689, 45.402243536694279 ] } },
{ "type": "Feature", "properties": { "stop_id": 5294, "stop_name": "South Shore & Canyon", "jurisdic": "Lake Oswego", "zipcode": "97034", "type": "BUS", "direction": "E", "position": "FS", "ons": "1", "offs": "0", "total": "1", "monthly_lifts": 0 }, "geometry": { "type": "Point", "coordinates": [ -122.702252688949798, 45.404645499483607 ] } },
{ "type": "Feature", "properties": { "stop_id": 5299, "stop_name": "South Shore & Fernwood", "jurisdic": "Lake Oswego", "zipcode": "97034", "type": "BUS", "direction": "E", "position": "NS", "ons": "1", "offs": "0", "total": "1", "monthly_lifts": 0 }, "geometry": { "type": "Point", "coordinates": [ -122.698614281882811, 45.404847319622498 ] } },